ibge,csv_post_title,lng,lat,csv_post_post,csv_post_categories,csv_post_author,csv_post_slug,csv_post_type
110001,Alta Floresta D'Oeste - RO,-61.9951388,-11.9283778,[mapbox layers='acaoeducativa.mapadosplanos' api='' options='' lat='-11.9283778' lon='-61.99513880000001' z='11' width='300' height='300'],Munícipio,alta floresta doeste-ro,alta-floresta-doeste-ro,municipio
110002,Ariquemes - RO,-63.0439731,-9.9137521,[mapbox layers='acaoeducativa.mapadosplanos' api='' options='' lat='-9.9137521' lon='-63.0439731' z='11' width='300' height='300'],Munícipio,ariquemes-ro,ariquemes-ro,municipio
110003,Cabixi - RO,-60.5410791,-13.4864112,[mapbox layers='acaoeducativa.mapadosplanos' api='' options='' lat='-13.4864112' lon='-60.5410791' z='11' width='300' height='300'],Munícipio,cabixi-ro,cabixi-ro,municipio
110004,Cacoal - RO,-61.4476964,-11.4314923,[mapbox layers='acaoeducativa.mapadosplanos' api='' options='' lat='-11.4314923' lon='-61.4476964' z='11' width='300' height='300'],Munícipio,cacoal-ro,cacoal-ro,municipio
110005,Cerejeiras - RO,-60.8163618,-13.1891188,[mapbox layers='acaoeducativa.mapadosplanos' api='' options='' lat='-13.1891188' lon='-60.81636179999999' z='11' width='300' height='300'],Munícipio,cerejeiras-ro,cerejeiras-ro,municipio
110006,Colorado do Oeste - RO,-60.5445754,-13.1243261,[mapbox layers='acaoeducativa.mapadosplanos' api='' options='' lat='-13.1243261' lon='-60.5445754' z='11' width='300' height='300'],Munícipio,colorado do oeste-ro,colorado-do-oeste-ro,municipio
110007,Corumbiara - RO,-60.8164744,-12.9644571,[mapbox layers='acaoeducativa.mapadosplanos' api='' options='' lat='-12.9644571' lon='-60.8164744' z='11' width='300' height='300'],Munícipio,corumbiara-ro,corumbiara-ro,municipio
110008,Costa Marques - RO,-64.2320045,-12.4338681,[mapbox layers='acaoeducativa.mapadosplanos' api='' options='' lat='-12.4338681' lon='-64.2320045' z='11' width='300' height='300'],Munícipio,costa marques-ro,costa-marques-ro,municipio
110009,Espigão D'Oeste - RO,-61.0116206,-11.5256793,[mapbox layers='acaoeducativa.mapadosplanos' api='' options='' lat='-11.5256793' lon='-61.0116206' z='11' width='300' height='300'],Munícipio,espigão doeste-ro,espigão-doeste-ro,municipio
110010,Guajará-Mirim - RO,-65.332216,-10.7909259,[mapbox layers='acaoeducativa.mapadosplanos' api='' options='' lat='-10.7909259' lon='-65.332216' z='11' width='300' height='300'],Munícipio,guajará-mirim-ro,guajará-mirim-ro,municipio
110011,Jaru - RO,-62.4732894,-10.4324985,[mapbox layers='acaoeducativa.mapadosplanos' api='' options='' lat='-10.4324985' lon='-62.4732894' z='11' width='300' height='300'],Munícipio,jaru-ro,jaru-ro,municipio
110012,Ji-Paraná - RO,-61.9418627,-10.8808268,[mapbox layers='acaoeducativa.mapadosplanos' api='' options='' lat='-10.8808268' lon='-61.94186269999999' z='11' width='300' height='300'],Munícipio,ji-paraná-ro,ji-paraná-ro,municipio
110013,Machadinho D'Oeste - RO,-62.0042427,-9.4302291,[mapbox layers='acaoeducativa.mapadosplanos' api='' options='' lat='-9.4302291' lon='-62.0042427' z='11' width='300' height='300'],Munícipio,machadinho doeste-ro,machadinho-doeste-ro,municipio
110014,Nova Brasilândia D'Oeste - RO,-62.3311629,-11.7164906,[mapbox layers='acaoeducativa.mapadosplanos' api='' options='' lat='-11.7164906' lon='-62.3311629' z='11' width='300' height='300'],Munícipio,nova brasilândia doeste-ro,nova-brasilândia-doeste-ro,municipio
110015,Ouro Preto do Oeste - RO,-62.2549709,-10.7117207,[mapbox layers='acaoeducativa.mapadosplanos' api='' options='' lat='-10.7117207' lon='-62.2549709' z='11' width='300' height='300'],Munícipio,ouro preto do oeste-ro,ouro-preto-do-oeste-ro,municipio
110018,Pimenta Bueno - RO,-61.1909917,-11.6748235,[mapbox layers='acaoeducativa.mapadosplanos' api='' options='' lat='-11.6748235' lon='-61.1909917' z='11' width='300' height='300'],Munícipio,pimenta bueno-ro,pimenta-bueno-ro,municipio
110020,Porto Velho - RO,-63.90196,-8.7618253,[mapbox layers='acaoeducativa.mapadosplanos' api='' options='' lat='-8.7618253' lon='-63.90196' z='11' width='300' height='300'],Munícipio,porto velho-ro,porto-velho-ro,municipio
110025,Presidente Médici - RO,-61.9031511,-11.1718397,[mapbox layers='acaoeducativa.mapadosplanos' api='' options='' lat='-11.1718397' lon='-61.9031511' z='11' width='300' height='300'],Munícipio,presidente médici-ro,presidente-médici-ro,municipio
110026,Rio Crespo - RO,-62.9005071,-9.7053696,[mapbox layers='acaoeducativa.mapadosplanos' api='' options='' lat='-9.7053696' lon='-62.9005071' z='11' width='300' height='300'],Munícipio,rio crespo-ro,rio-crespo-ro,municipio
110028,Rolim de Moura - RO,-61.7797225,-11.7299266,[mapbox layers='acaoeducativa.mapadosplanos' api='' options='' lat='-11.7299266' lon='-61.7797225' z='11' width='300' height='300'],Munícipio,rolim de moura-ro,rolim-de-moura-ro,municipio
110029,Santa Luzia D'Oeste - RO,-61.7788268,-11.9095232,[mapbox layers='acaoeducativa.mapadosplanos' api='' options='' lat='-11.9095232' lon='-61.7788268' z='11' width='300' height='300'],Munícipio,santa luzia doeste-ro,santa-luzia-doeste-ro,municipio
110030,Vilhena - RO,-60.1309857,-12.7364877,[mapbox layers='acaoeducativa.mapadosplanos' api='' options='' lat='-12.7364877' lon='-60.1309857' z='11' width='300' height='300'],Munícipio,vilhena-ro,vilhena-ro,municipio
110032,São Miguel do Guaporé - RO,-62.6874995,-11.6934269,[mapbox layers='acaoeducativa.mapadosplanos' api='' options='' lat='-11.6934269' lon='-62.68749949999999' z='11' width='300' height='300'],Munícipio,são miguel do guaporé-ro,são-miguel-do-guaporé-ro,municipio
110033,Nova Mamoré - RO,-65.3270733,-10.4131389,[mapbox layers='acaoeducativa.mapadosplanos' api='' options='' lat='-10.4131389' lon='-65.3270733' z='11' width='300' height='300'],Munícipio,nova mamoré-ro,nova-mamoré-ro,municipio
110034,Alvorada D'Oeste - RO,-62.3694516,-11.4276117,[mapbox layers='acaoeducativa.mapadosplanos' api='' options='' lat='-11.4276117' lon='-62.3694516' z='11' width='300' height='300'],Munícipio,alvorada doeste-ro,alvorada-doeste-ro,municipio
110037,Alto Alegre dos Parecis - RO,-61.8515066,-12.1283787,[mapbox layers='acaoeducativa.mapadosplanos' api='' options='' lat='-12.1283787' lon='-61.85150659999999' z='11' width='300' height='300'],Munícipio,alto alegre dos parecis-ro,alto-alegre-dos-parecis-ro,municipio
110040,Alto Paraíso - RO,-63.2833988,-9.7453092,[mapbox layers='acaoeducativa.mapadosplanos' api='' options='' lat='-9.7453092' lon='-63.28339880000001' z='11' width='300' height='300'],Munícipio,alto paraíso-ro,alto-paraíso-ro,municipio
110045,Buritis - RO,-63.8295119,-10.2123697,[mapbox layers='acaoeducativa.mapadosplanos' api='' options='' lat='-10.2123697' lon='-63.82951190000001' z='11' width='300' height='300'],Munícipio,buritis-ro,buritis-ro,municipio
110050,Novo Horizonte do Oeste - RO,-61.9968834,-11.7099862,[mapbox layers='acaoeducativa.mapadosplanos' api='' options='' lat='-11.7099862' lon='-61.99688339999999' z='11' width='300' height='300'],Munícipio,novo horizonte do oeste-ro,novo-horizonte-do-oeste-ro,municipio
110060,Cacaulândia - RO,-62.8999191,-10.3418676,[mapbox layers='acaoeducativa.mapadosplanos' api='' options='' lat='-10.3418676' lon='-62.8999191' z='11' width='300' height='300'],Munícipio,cacaulândia-ro,cacaulândia-ro,municipio
110070,Campo Novo de Rondônia - RO,-63.6174775,-10.549576,[mapbox layers='acaoeducativa.mapadosplanos' api='' options='' lat='-10.549576' lon='-63.6174775' z='11' width='300' height='300'],Munícipio,campo novo de rondônia-ro,campo-novo-de-rondônia-ro,municipio
110080,Candeias do Jamari - RO,-63.7023562,-8.7818547,[mapbox layers='acaoeducativa.mapadosplanos' api='' options='' lat='-8.7818547' lon='-63.70235619999999' z='11' width='300' height='300'],Munícipio,candeias do jamari-ro,candeias-do-jamari-ro,municipio
110090,Castanheiras - RO,-61.9551727,-11.4279504,[mapbox layers='acaoeducativa.mapadosplanos' api='' options='' lat='-11.4279504' lon='-61.95517270000001' z='11' width='300' height='300'],Munícipio,castanheiras-ro,castanheiras-ro,municipio
110092,Chupinguaia - RO,-60.902299,-12.5501417,[mapbox layers='acaoeducativa.mapadosplanos' api='' options='' lat='-12.5501417' lon='-60.902299' z='11' width='300' height='300'],Munícipio,chupinguaia-ro,chupinguaia-ro,municipio
110094,Cujubim - RO,-62.5855042,-9.363369,[mapbox layers='acaoeducativa.mapadosplanos' api='' options='' lat='-9.363368999999999' lon='-62.58550419999999' z='11' width='300' height='300'],Munícipio,cujubim-ro,cujubim-ro,municipio
110100,Governador Jorge Teixeira - RO,-62.7347908,-10.6128756,[mapbox layers='acaoeducativa.mapadosplanos' api='' options='' lat='-10.6128756' lon='-62.7347908' z='11' width='300' height='300'],Munícipio,governador jorge teixeira-ro,governador-jorge-teixeira-ro,municipio
110110,Itapuã do Oeste - RO,-63.1655015,-9.1974737,[mapbox layers='acaoeducativa.mapadosplanos' api='' options='' lat='-9.1974737' lon='-63.1655015' z='11' width='300' height='300'],Munícipio,itapuã do oeste-ro,itapuã-do-oeste-ro,municipio
110120,Ministro Andreazza - RO,-61.5120653,-11.1984375,[mapbox layers='acaoeducativa.mapadosplanos' api='' options='' lat='-11.1984375' lon='-61.5120653' z='11' width='300' height='300'],Munícipio,ministro andreazza-ro,ministro-andreazza-ro,municipio
110130,Mirante da Serra - RO,-62.6786853,-11.027279,[mapbox layers='acaoeducativa.mapadosplanos' api='' options='' lat='-11.027279' lon='-62.67868530000001' z='11' width='300' height='300'],Munícipio,mirante da serra-ro,mirante-da-serra-ro,municipio
110140,Monte Negro - RO,-63.2872166,-10.2516437,[mapbox layers='acaoeducativa.mapadosplanos' api='' options='' lat='-10.2516437' lon='-63.28721659999999' z='11' width='300' height='300'],Munícipio,monte negro-ro,monte-negro-ro,municipio
110143,Nova União - RO,-62.5579605,-10.9079468,[mapbox layers='acaoeducativa.mapadosplanos' api='' options='' lat='-10.9079468' lon='-62.5579605' z='11' width='300' height='300'],Munícipio,nova união-ro,nova-união-ro,municipio
110145,Parecis - RO,-61.6035055,-12.1753793,[mapbox layers='acaoeducativa.mapadosplanos' api='' options='' lat='-12.1753793' lon='-61.6035055' z='11' width='300' height='300'],Munícipio,parecis-ro,parecis-ro,municipio
110146,Pimenteiras do Oeste - RO,-61.0390475,-13.4788452,[mapbox layers='acaoeducativa.mapadosplanos' api='' options='' lat='-13.4788452' lon='-61.0390475' z='11' width='300' height='300'],Munícipio,pimenteiras do oeste-ro,pimenteiras-do-oeste-ro,municipio
110147,Primavera de Rondônia - RO,-61.3194366,-11.8279137,[mapbox layers='acaoeducativa.mapadosplanos' api='' options='' lat='-11.8279137' lon='-61.3194366' z='11' width='300' height='300'],Munícipio,primavera de rondônia-ro,primavera-de-rondônia-ro,municipio
110148,São Felipe D'Oeste - RO,-61.5136216,-11.9062016,[mapbox layers='acaoeducativa.mapadosplanos' api='' options='' lat='-11.9062016' lon='-61.51362159999999' z='11' width='300' height='300'],Munícipio,são felipe doeste-ro,são-felipe-doeste-ro,municipio
110149,São Francisco do Guaporé - RO,-63.572084,-12.0404823,[mapbox layers='acaoeducativa.mapadosplanos' api='' options='' lat='-12.0404823' lon='-63.572084' z='11' width='300' height='300'],Munícipio,são francisco do guaporé-ro,são-francisco-do-guaporé-ro,municipio
110150,Seringueiras - RO,-63.0305721,-11.7484114,[mapbox layers='acaoeducativa.mapadosplanos' api='' options='' lat='-11.7484114' lon='-63.03057210000001' z='11' width='300' height='300'],Munícipio,seringueiras-ro,seringueiras-ro,municipio
110155,Teixeirópolis - RO,-62.2551282,-10.9340534,[mapbox layers='acaoeducativa.mapadosplanos' api='' options='' lat='-10.9340534' lon='-62.2551282' z='11' width='300' height='300'],Munícipio,teixeirópolis-ro,teixeirópolis-ro,municipio
110160,Theobroma - RO,-62.3520645,-10.2428691,[mapbox layers='acaoeducativa.mapadosplanos' api='' options='' lat='-10.2428691' lon='-62.3520645' z='11' width='300' height='300'],Munícipio,theobroma-ro,theobroma-ro,municipio
110170,Urupá - RO,-62.367976,-11.1156408,[mapbox layers='acaoeducativa.mapadosplanos' api='' options='' lat='-11.1156408' lon='-62.367976' z='11' width='300' height='300'],Munícipio,urupá-ro,urupá-ro,municipio
110175,Vale do Anari - RO,-62.1659231,-9.8639502,[mapbox layers='acaoeducativa.mapadosplanos' api='' options='' lat='-9.8639502' lon='-62.16592309999999' z='11' width='300' height='300'],Munícipio,vale do anari-ro,vale-do-anari-ro,municipio
110180,Vale do Paraíso - RO,-62.1298018,-10.427397,[mapbox layers='acaoeducativa.mapadosplanos' api='' options='' lat='-10.427397' lon='-62.1298018' z='11' width='300' height='300'],Munícipio,vale do paraíso-ro,vale-do-paraíso-ro,municipio
120001,Acrelândia - AC,-66.8864794,-9.8253759,[mapbox layers='acaoeducativa.mapadosplanos' api='' options='' lat='-9.8253759' lon='-66.8864794' z='11' width='300' height='300'],Munícipio,acrelândia-ac,acrelândia-ac,municipio
120005,Assis Brasil - AC,-69.5745747,-10.9426919,[mapbox layers='acaoeducativa.mapadosplanos' api='' options='' lat='-10.9426919' lon='-69.5745747' z='11' width='300' height='300'],Munícipio,assis brasil-ac,assis-brasil-ac,municipio
120010,Brasiléia - AC,-68.742604,-11.0069405,[mapbox layers='acaoeducativa.mapadosplanos' api='' options='' lat='-11.0069405' lon='-68.742604' z='11' width='300' height='300'],Munícipio,brasiléia-ac,brasiléia-ac,municipio
120013,Bujari - AC,-67.9475283,-9.8227403,[mapbox layers='acaoeducativa.mapadosplanos' api='' options='' lat='-9.8227403' lon='-67.9475283' z='11' width='300' height='300'],Munícipio,bujari-ac,bujari-ac,municipio
120017,Capixaba - AC,-67.6903366,-10.5609474,[mapbox layers='acaoeducativa.mapadosplanos' api='' options='' lat='-10.5609474' lon='-67.6903366' z='11' width='300' height='300'],Munícipio,capixaba-ac,capixaba-ac,municipio
120020,Cruzeiro do Sul - AC,-72.6503611,-7.6649023,[mapbox layers='acaoeducativa.mapadosplanos' api='' options='' lat='-7.664902299999999' lon='-72.6503611' z='11' width='300' height='300'],Munícipio,cruzeiro do sul-ac,cruzeiro-do-sul-ac,municipio
120025,Epitaciolândia - AC,-68.733681,-11.0166536,[mapbox layers='acaoeducativa.mapadosplanos' api='' options='' lat='-11.0166536' lon='-68.73368099999999' z='11' width='300' height='300'],Munícipio,epitaciolândia-ac,epitaciolândia-ac,municipio
120030,Feijó - AC,-70.3573399,-8.1670622,[mapbox layers='acaoeducativa.mapadosplanos' api='' options='' lat='-8.1670622' lon='-70.3573399' z='11' width='300' height='300'],Munícipio,feijó-ac,feijó-ac,municipio
120032,Jordão - AC,-71.8845394,-9.4343554,[mapbox layers='acaoeducativa.mapadosplanos' api='' options='' lat='-9.4343554' lon='-71.8845394' z='11' width='300' height='300'],Munícipio,jordão-ac,jordão-ac,municipio
120033,Mâncio Lima - AC,-72.8923397,-7.6222509,[mapbox layers='acaoeducativa.mapadosplanos' api='' options='' lat='-7.6222509' lon='-72.8923397' z='11' width='300' height='300'],Munícipio,mâncio lima-ac,mâncio-lima-ac,municipio
120034,Manoel Urbano - AC,-69.2801804,-8.8734112,[mapbox layers='acaoeducativa.mapadosplanos' api='' options='' lat='-8.873411200000001' lon='-69.28018039999999' z='11' width='300' height='300'],Munícipio,manoel urbano-ac,manoel-urbano-ac,municipio
120035,Marechal Thaumaturgo - AC,-72.7925412,-8.9413533,[mapbox layers='acaoeducativa.mapadosplanos' api='' options='' lat='-8.9413533' lon='-72.7925412' z='11' width='300' height='300'],Munícipio,marechal thaumaturgo-ac,marechal-thaumaturgo-ac,municipio
120038,Plácido de Castro - AC,-67.1884362,-10.2673205,[mapbox layers='acaoeducativa.mapadosplanos' api='' options='' lat='-10.2673205' lon='-67.1884362' z='11' width='300' height='300'],Munícipio,plácido de castro-ac,plácido-de-castro-ac,municipio
120039,Porto Walter - AC,-72.7445401,-8.2693522,[mapbox layers='acaoeducativa.mapadosplanos' api='' options='' lat='-8.269352200000002' lon='-72.7445401' z='11' width='300' height='300'],Munícipio,porto walter-ac,porto-walter-ac,municipio
120040,Rio Branco - AC,-67.807568,-9.9739989,[mapbox layers='acaoeducativa.mapadosplanos' api='' options='' lat='-9.9739989' lon='-67.807568' z='11' width='300' height='300'],Munícipio,rio branco-ac,rio-branco-ac,municipio
120042,Rodrigues Alves - AC,-72.6514392,-7.7303724,[mapbox layers='acaoeducativa.mapadosplanos' api='' options='' lat='-7.7303724' lon='-72.6514392' z='11' width='300' height='300'],Munícipio,rodrigues alves-ac,rodrigues-alves-ac,municipio
120043,Santa Rosa do Purus - AC,-70.4935352,-9.4333575,[mapbox layers='acaoeducativa.mapadosplanos' api='' options='' lat='-9.4333575' lon='-70.4935352' z='11' width='300' height='300'],Munícipio,santa rosa do purus-ac,santa-rosa-do-purus-ac,municipio
120045,Senador Guiomard - AC,-67.731961,-10.1479684,[mapbox layers='acaoeducativa.mapadosplanos' api='' options='' lat='-10.1479684' lon='-67.731961' z='11' width='300' height='300'],Munícipio,senador guiomard-ac,senador-guiomard-ac,municipio
120050,Sena Madureira - AC,-68.6593826,-9.0689075,[mapbox layers='acaoeducativa.mapadosplanos' api='' options='' lat='-9.0689075' lon='-68.6593826' z='11' width='300' height='300'],Munícipio,sena madureira-ac,sena-madureira-ac,municipio
120060,Tarauacá - AC,-70.7649772,-8.1356236,[mapbox layers='acaoeducativa.mapadosplanos' api='' options='' lat='-8.135623599999999' lon='-70.76497719999999' z='11' width='300' height='300'],Munícipio,tarauacá-ac,tarauacá-ac,municipio
120070,Xapuri - AC,-68.4945865,-10.6359712,[mapbox layers='acaoeducativa.mapadosplanos' api='' options='' lat='-10.6359712' lon='-68.4945865' z='11' width='300' height='300'],Munícipio,xapuri-ac,xapuri-ac,municipio
120080,Porto Acre - AC,-67.5508055,-9.5763223,[mapbox layers='acaoeducativa.mapadosplanos' api='' options='' lat='-9.5763223' lon='-67.5508055' z='11' width='300' height='300'],Munícipio,porto acre-ac,porto-acre-ac,municipio
130002,Alvarães - AM,-64.8045086,-3.2213464,[mapbox layers='acaoeducativa.mapadosplanos' api='' options='' lat='-3.2213464' lon='-64.80450859999999' z='11' width='300' height='300'],Munícipio,alvarães-am,alvarães-am,municipio
130006,Amaturá - AM,-68.1985213,-3.3643451,[mapbox layers='acaoeducativa.mapadosplanos' api='' options='' lat='-3.3643451' lon='-68.1985213' z='11' width='300' height='300'],Munícipio,amaturá-am,amaturá-am,municipio
130008,Anamã - AM,-61.4044943,-3.5803495,[mapbox layers='acaoeducativa.mapadosplanos' api='' options='' lat='-3.5803495' lon='-61.4044943' z='11' width='300' height='300'],Munícipio,anamã-am,anamã-am,municipio
130010,Anori - AM,-61.6444955,-3.7733502,[mapbox layers='acaoeducativa.mapadosplanos' api='' options='' lat='-3.7733502' lon='-61.6444955' z='11' width='300' height='300'],Munícipio,anori-am,anori-am,municipio
130014,Apuí - AM,-59.8909241,-7.1985289,[mapbox layers='acaoeducativa.mapadosplanos' api='' options='' lat='-7.198528899999999' lon='-59.8909241' z='11' width='300' height='300'],Munícipio,apuí-am,apuí-am,municipio
130020,Atalaia do Norte - AM,-70.1925286,-4.3723466,[mapbox layers='acaoeducativa.mapadosplanos' api='' options='' lat='-4.3723466' lon='-70.1925286' z='11' width='300' height='300'],Munícipio,atalaia do norte-am,atalaia-do-norte-am,municipio
130030,Autazes - AM,-59.1314836,-3.5803508,[mapbox layers='acaoeducativa.mapadosplanos' api='' options='' lat='-3.5803508' lon='-59.1314836' z='11' width='300' height='300'],Munícipio,autazes-am,autazes-am,municipio
130040,Barcelos - AM,-62.9245001,-0.9753386,[mapbox layers='acaoeducativa.mapadosplanos' api='' options='' lat='-0.9753386000000001' lon='-62.9245001' z='11' width='300' height='300'],Munícipio,barcelos-am,barcelos-am,municipio
130050,Barreirinha - AM,-57.0704719,-2.7933482,[mapbox layers='acaoeducativa.mapadosplanos' api='' options='' lat='-2.7933482' lon='-57.0704719' z='11' width='300' height='300'],Munícipio,barreirinha-am,barreirinha-am,municipio
130060,Benjamin Constant - AM,-70.0301751,-4.3760118,[mapbox layers='acaoeducativa.mapadosplanos' api='' options='' lat='-4.3760118' lon='-70.0301751' z='11' width='300' height='300'],Munícipio,benjamin constant-am,benjamin-constant-am,municipio
130063,Beruri - AM,-61.3734943,-3.8983498,[mapbox layers='acaoeducativa.mapadosplanos' api='' options='' lat='-3.8983498' lon='-61.3734943' z='11' width='300' height='300'],Munícipio,beruri-am,beruri-am,municipio
130068,Boa Vista do Ramos - AM,-57.5866686,-2.9715388,[mapbox layers='acaoeducativa.mapadosplanos' api='' options='' lat='-2.9715388' lon='-57.5866686' z='11' width='300' height='300'],Munícipio,boa vista do ramos-am,boa-vista-do-ramos-am,municipio
130070,Boca do Acre - AM,-67.3840816,-8.7406895,[mapbox layers='acaoeducativa.mapadosplanos' api='' options='' lat='-8.7406895' lon='-67.3840816' z='11' width='300' height='300'],Munícipio,boca do acre-am,boca-do-acre-am,municipio
130080,Borba - AM,-59.5944863,-4.3883539,[mapbox layers='acaoeducativa.mapadosplanos' api='' options='' lat='-4.388353899999999' lon='-59.59448630000001' z='11' width='300' height='300'],Munícipio,borba-am,borba-am,municipio
130083,Caapiranga - AM,-61.2094933,-3.3283486,[mapbox layers='acaoeducativa.mapadosplanos' api='' options='' lat='-3.3283486' lon='-61.2094933' z='11' width='300' height='300'],Munícipio,caapiranga-am,caapiranga-am,municipio
130090,Canutama - AM,-64.3835084,-6.5343578,[mapbox layers='acaoeducativa.mapadosplanos' api='' options='' lat='-6.5343578' lon='-64.3835084' z='11' width='300' height='300'],Munícipio,canutama-am,canutama-am,municipio
130100,Carauari - AM,-66.9000867,-4.8790675,[mapbox layers='acaoeducativa.mapadosplanos' api='' options='' lat='-4.879067500000001' lon='-66.9000867' z='11' width='300' height='300'],Munícipio,carauari-am,carauari-am,municipio
130110,Careiro - AM,-60.3455265,-3.8121211,[mapbox layers='acaoeducativa.mapadosplanos' api='' options='' lat='-3.8121211' lon='-60.3455265' z='11' width='300' height='300'],Munícipio,careiro-am,careiro-am,municipio
130115,Careiro da Várzea - AM,-59.8698401,-3.1921201,[mapbox layers='acaoeducativa.mapadosplanos' api='' options='' lat='-3.1921201' lon='-59.8698401' z='11' width='300' height='300'],Munícipio,careiro da várzea-am,careiro-da-várzea-am,municipio
130120,Coari - AM,-63.1417092,-4.0848815,[mapbox layers='acaoeducativa.mapadosplanos' api='' options='' lat='-4.0848815' lon='-63.1417092' z='11' width='300' height='300'],Munícipio,coari-am,coari-am,municipio
130130,Codajás - AM,-62.0574973,-3.8373502,[mapbox layers='acaoeducativa.mapadosplanos' api='' options='' lat='-3.8373502' lon='-62.05749729999999' z='11' width='300' height='300'],Munícipio,codajás-am,codajás-am,municipio
130140,Eirunepé - AM,-69.8673676,-6.6630445,[mapbox layers='acaoeducativa.mapadosplanos' api='' options='' lat='-6.6630445' lon='-69.8673676' z='11' width='300' height='300'],Munícipio,eirunepé-am,eirunepé-am,municipio
130150,Envira - AM,-70.0235309,-7.4333541,[mapbox layers='acaoeducativa.mapadosplanos' api='' options='' lat='-7.433354100000001' lon='-70.0235309' z='11' width='300' height='300'],Munícipio,envira-am,envira-am,municipio
130160,Fonte Boa - AM,-66.0925133,-2.5143434,[mapbox layers='acaoeducativa.mapadosplanos' api='' options='' lat='-2.5143434' lon='-66.0925133' z='11' width='300' height='300'],Munícipio,fonte boa-am,fonte-boa-am,municipio
130165,Guajará - AM,-72.7444492,-7.576581,[mapbox layers='acaoeducativa.mapadosplanos' api='' options='' lat='-7.576580999999999' lon='-72.74444919999999' z='11' width='300' height='300'],Munícipio,guajará-am,guajará-am,municipio
130170,Humaitá - AM,-63.0271717,-7.5061665,[mapbox layers='acaoeducativa.mapadosplanos' api='' options='' lat='-7.5061665' lon='-63.02717169999999' z='11' width='300' height='300'],Munícipio,humaitá-am,humaitá-am,municipio
130180,Ipixuna - AM,-71.6955356,-7.0513513,[mapbox layers='acaoeducativa.mapadosplanos' api='' options='' lat='-7.051351299999999' lon='-71.6955356' z='11' width='300' height='300'],Munícipio,ipixuna-am,ipixuna-am,municipio
130185,Iranduba - AM,-60.1789744,-3.2010506,[mapbox layers='acaoeducativa.mapadosplanos' api='' options='' lat='-3.2010506' lon='-60.17897439999999' z='11' width='300' height='300'],Munícipio,iranduba-am,iranduba-am,municipio
130190,Itacoatiara - AM,-58.442635,-3.1419812,[mapbox layers='acaoeducativa.mapadosplanos' api='' options='' lat='-3.1419812' lon='-58.442635' z='11' width='300' height='300'],Munícipio,itacoatiara-am,itacoatiara-am,municipio
130195,Itamarati - AM,-68.2535239,-6.4253536,[mapbox layers='acaoeducativa.mapadosplanos' api='' options='' lat='-6.425353599999999' lon='-68.25352389999999' z='11' width='300' height='300'],Munícipio,itamarati-am,itamarati-am,municipio
130200,Itapiranga - AM,-58.0224777,-2.7493476,[mapbox layers='acaoeducativa.mapadosplanos' api='' options='' lat='-2.7493476' lon='-58.0224777' z='11' width='300' height='300'],Munícipio,itapiranga-am,itapiranga-am,municipio
130210,Japurá - AM,-66.599515,-1.8263409,[mapbox layers='acaoeducativa.mapadosplanos' api='' options='' lat='-1.8263409' lon='-66.599515' z='11' width='300' height='300'],Munícipio,japurá-am,japurá-am,municipio
130220,Juruá - AM,-66.0695137,-3.4813466,[mapbox layers='acaoeducativa.mapadosplanos' api='' options='' lat='-3.4813466' lon='-66.0695137' z='11' width='300' height='300'],Munícipio,juruá-am,juruá-am,municipio
130230,Jutaí - AM,-66.7675169,-2.7473439,[mapbox layers='acaoeducativa.mapadosplanos' api='' options='' lat='-2.7473439' lon='-66.7675169' z='11' width='300' height='300'],Munícipio,jutaí-am,jutaí-am,municipio
130240,Lábrea - AM,-64.7992788,-7.2599727,[mapbox layers='acaoeducativa.mapadosplanos' api='' options='' lat='-7.2599727' lon='-64.7992788' z='11' width='300' height='300'],Munícipio,lábrea-am,lábrea-am,municipio
130250,Manacapuru - AM,-60.6343946,-3.2941768,[mapbox layers='acaoeducativa.mapadosplanos' api='' options='' lat='-3.2941768' lon='-60.6343946' z='11' width='300' height='300'],Munícipio,manacapuru-am,manacapuru-am,municipio
130255,Manaquiri - AM,-60.4255047,-3.3846073,[mapbox layers='acaoeducativa.mapadosplanos' api='' options='' lat='-3.3846073' lon='-60.4255047' z='11' width='300' height='300'],Munícipio,manaquiri-am,manaquiri-am,municipio
130260,Manaus - AM,-60.0264297,-3.1064093,[mapbox layers='acaoeducativa.mapadosplanos' api='' options='' lat='-3.1064093' lon='-60.02642969999999' z='11' width='300' height='300'],Munícipio,manaus-am,manaus-am,municipio
130270,Manicoré - AM,-61.3004954,-5.8093582,[mapbox layers='acaoeducativa.mapadosplanos' api='' options='' lat='-5.8093582' lon='-61.3004954' z='11' width='300' height='300'],Munícipio,manicoré-am,manicoré-am,municipio
130280,Maraã - AM,-65.5815111,-1.8563413,[mapbox layers='acaoeducativa.mapadosplanos' api='' options='' lat='-1.8563413' lon='-65.5815111' z='11' width='300' height='300'],Munícipio,maraã-am,maraã-am,municipio
130290,Maués - AM,-57.7204685,-3.3805046,[mapbox layers='acaoeducativa.mapadosplanos' api='' options='' lat='-3.3805046' lon='-57.7204685' z='11' width='300' height='300'],Munícipio,maués-am,maués-am,municipio
130300,Nhamundá - AM,-56.7189439,-2.2049055,[mapbox layers='acaoeducativa.mapadosplanos' api='' options='' lat='-2.2049055' lon='-56.7189439' z='11' width='300' height='300'],Munícipio,nhamundá-am,nhamundá-am,municipio
130310,Nova Olinda do Norte - AM,-59.0944836,-3.8883521,[mapbox layers='acaoeducativa.mapadosplanos' api='' options='' lat='-3.8883521' lon='-59.09448359999999' z='11' width='300' height='300'],Munícipio,nova olinda do norte-am,nova-olinda-do-norte-am,municipio
130320,Novo Airão - AM,-60.9435407,-2.6258669,[mapbox layers='acaoeducativa.mapadosplanos' api='' options='' lat='-2.6258669' lon='-60.9435407' z='11' width='300' height='300'],Munícipio,novo airão-am,novo-airão-am,municipio
130330,Novo Aripuanã - AM,-60.3757005,-5.1350764,[mapbox layers='acaoeducativa.mapadosplanos' api='' options='' lat='-5.1350764' lon='-60.37570050000001' z='11' width='300' height='300'],Munícipio,novo aripuanã-am,novo-aripuanã-am,municipio
130340,Parintins - AM,-56.7364711,-2.6283475,[mapbox layers='acaoeducativa.mapadosplanos' api='' options='' lat='-2.6283475' lon='-56.7364711' z='11' width='300' height='300'],Munícipio,parintins-am,parintins-am,municipio
130350,Pauini - AM,-66.9765208,-7.7143584,[mapbox layers='acaoeducativa.mapadosplanos' api='' options='' lat='-7.714358400000001' lon='-66.9765208' z='11' width='300' height='300'],Munícipio,pauini-am,pauini-am,municipio
130353,Presidente Figueiredo - AM,-60.0258753,-2.0343517,[mapbox layers='acaoeducativa.mapadosplanos' api='' options='' lat='-2.0343517' lon='-60.0258753' z='11' width='300' height='300'],Munícipio,presidente figueiredo-am,presidente-figueiredo-am,municipio
130356,Rio Preto da Eva - AM,-59.7006759,-2.6987167,[mapbox layers='acaoeducativa.mapadosplanos' api='' options='' lat='-2.6987167' lon='-59.70067590000001' z='11' width='300' height='300'],Munícipio,rio preto da eva-am,rio-preto-da-eva-am,municipio
130360,Santa Isabel do Rio Negro - AM,-65.0195087,-0.4143362,[mapbox layers='acaoeducativa.mapadosplanos' api='' options='' lat='-0.4143362' lon='-65.0195087' z='11' width='300' height='300'],Munícipio,santa isabel do rio negro-am,santa-isabel-do-rio-negro-am,municipio
130370,Santo Antônio do Içá - AM,-67.9467463,-3.1068635,[mapbox layers='acaoeducativa.mapadosplanos' api='' options='' lat='-3.1068635' lon='-67.9467463' z='11' width='300' height='300'],Munícipio,santo antônio do içá-am,santo-antônio-do-içá-am,municipio
130380,São Gabriel da Cachoeira - AM,-67.0835095,-0.1331921,[mapbox layers='acaoeducativa.mapadosplanos' api='' options='' lat='-0.1331921' lon='-67.08350949999999' z='11' width='300' height='300'],Munícipio,são gabriel da cachoeira-am,são-gabriel-da-cachoeira-am,municipio
130390,São Paulo de Olivença - AM,-68.8735237,-3.3783448,[mapbox layers='acaoeducativa.mapadosplanos' api='' options='' lat='-3.3783448' lon='-68.87352369999999' z='11' width='300' height='300'],Munícipio,são paulo de olivença-am,são-paulo-de-olivença-am,municipio
130395,São Sebastião do Uatumã - AM,-57.8714769,-2.5723468,[mapbox layers='acaoeducativa.mapadosplanos' api='' options='' lat='-2.5723468' lon='-57.8714769' z='11' width='300' height='300'],Munícipio,são sebastião do uatumã-am,são-sebastião-do-uatumã-am,municipio
130400,Silves - AM,-58.3973907,-2.9867595,[mapbox layers='acaoeducativa.mapadosplanos' api='' options='' lat='-2.9867595' lon='-58.3973907' z='11' width='300' height='300'],Munícipio,silves-am,silves-am,municipio
130406,Tabatinga - AM,-69.9367927,-4.2300835,[mapbox layers='acaoeducativa.mapadosplanos' api='' options='' lat='-4.2300835' lon='-69.9367927' z='11' width='300' height='300'],Munícipio,tabatinga-am,tabatinga-am,municipio
130410,Tapauá - AM,-63.1835035,-5.6283559,[mapbox layers='acaoeducativa.mapadosplanos' api='' options='' lat='-5.6283559' lon='-63.1835035' z='11' width='300' height='300'],Munícipio,tapauá-am,tapauá-am,municipio
130420,Tefé - AM,-64.7235833,-3.3207288,[mapbox layers='acaoeducativa.mapadosplanos' api='' options='' lat='-3.3207288' lon='-64.7235833' z='11' width='300' height='300'],Munícipio,tefé-am,tefé-am,municipio
130423,Tonantins - AM,-67.8025197,-2.8733438,[mapbox layers='acaoeducativa.mapadosplanos' api='' options='' lat='-2.8733438' lon='-67.80251969999999' z='11' width='300' height='300'],Munícipio,tonantins-am,tonantins-am,municipio
130426,Uarini - AM,-65.1085097,-2.9939135,[mapbox layers='acaoeducativa.mapadosplanos' api='' options='' lat='-2.9939135' lon='-65.1085097' z='11' width='300' height='300'],Munícipio,uarini-am,uarini-am,municipio
130430,Urucará - AM,-57.7604763,-2.5363467,[mapbox layers='acaoeducativa.mapadosplanos' api='' options='' lat='-2.5363467' lon='-57.7604763' z='11' width='300' height='300'],Munícipio,urucará-am,urucará-am,municipio
130440,Urucurituba - AM,-58.0718661,-2.8981742,[mapbox layers='acaoeducativa.mapadosplanos' api='' options='' lat='-2.8981742' lon='-58.0718661' z='11' width='300' height='300'],Munícipio,urucurituba-am,urucurituba-am,municipio
140002,Amajari - RR,-61.3714642,3.6531,[mapbox layers='acaoeducativa.mapadosplanos' api='' options='' lat='3.6531' lon='-61.3714642' z='11' width='300' height='300'],Munícipio,amajari-rr,amajari-rr,municipio
140005,Alto Alegre - RR,-61.491389,2.898056,[mapbox layers='acaoeducativa.mapadosplanos' api='' options='' lat='2.898056' lon='-61.491389' z='11' width='300' height='300'],Munícipio,alto alegre-rr,alto-alegre-rr,municipio
140010,Boa Vista - RR,-60.6714006,2.8195384,[mapbox layers='acaoeducativa.mapadosplanos' api='' options='' lat='2.8195384' lon='-60.67140059999999' z='11' width='300' height='300'],Munícipio,boa vista-rr,boa-vista-rr,municipio
140015,Bonfim - RR,-59.8331569,3.3570164,[mapbox layers='acaoeducativa.mapadosplanos' api='' options='' lat='3.3570164' lon='-59.8331569' z='11' width='300' height='300'],Munícipio,bonfim-rr,bonfim-rr,municipio
140017,Cantá - RR,-60.5960991,2.6084644,[mapbox layers='acaoeducativa.mapadosplanos' api='' options='' lat='2.6084644' lon='-60.5960991' z='11' width='300' height='300'],Munícipio,cantá-rr,cantá-rr,municipio
140020,Caracaraí - RR,-61.1323953,1.8202326,[mapbox layers='acaoeducativa.mapadosplanos' api='' options='' lat='1.8202326' lon='-61.1323953' z='11' width='300' height='300'],Munícipio,caracaraí-rr,caracaraí-rr,municipio
140023,Caroebe - RR,-59.6949984,0.8958636,[mapbox layers='acaoeducativa.mapadosplanos' api='' options='' lat='0.8958636' lon='-59.6949984' z='11' width='300' height='300'],Munícipio,caroebe-rr,caroebe-rr,municipio
140028,Iracema - RR,-61.039992,2.1800283,[mapbox layers='acaoeducativa.mapadosplanos' api='' options='' lat='2.1800283' lon='-61.039992' z='11' width='300' height='300'],Munícipio,iracema-rr,iracema-rr,municipio
140030,Mucajaí - RR,-60.9196215,2.4300585,[mapbox layers='acaoeducativa.mapadosplanos' api='' options='' lat='2.4300585' lon='-60.91962149999999' z='11' width='300' height='300'],Munícipio,mucajaí-rr,mucajaí-rr,municipio
140040,Normandia - RR,-59.6244342,3.8832751,[mapbox layers='acaoeducativa.mapadosplanos' api='' options='' lat='3.8832751' lon='-59.6244342' z='11' width='300' height='300'],Munícipio,normandia-rr,normandia-rr,municipio
140045,Pacaraima - RR,-61.1407756,4.4170118,[mapbox layers='acaoeducativa.mapadosplanos' api='' options='' lat='4.4170118' lon='-61.1407756' z='11' width='300' height='300'],Munícipio,pacaraima-rr,pacaraima-rr,municipio
140047,Rorainópolis - RR,-60.4184349,0.9456337,[mapbox layers='acaoeducativa.mapadosplanos' api='' options='' lat='0.9456336999999999' lon='-60.41843489999999' z='11' width='300' height='300'],Munícipio,rorainópolis-rr,rorainópolis-rr,municipio
140050,São João da Baliza - RR,-59.9114715,0.9494778,[mapbox layers='acaoeducativa.mapadosplanos' api='' options='' lat='0.9494777999999998' lon='-59.91147149999999' z='11' width='300' height='300'],Munícipio,são joão da baliza-rr,são-joão-da-baliza-rr,municipio
140060,São Luiz - RR,-60.1498446,1.0497292,[mapbox layers='acaoeducativa.mapadosplanos' api='' options='' lat='1.0497292' lon='-60.14984459999999' z='11' width='300' height='300'],Munícipio,são luiz-rr,são-luiz-rr,municipio
140070,Uiramutã - RR,-60.1579921,4.5999664,[mapbox layers='acaoeducativa.mapadosplanos' api='' options='' lat='4.5999664' lon='-60.15799209999999' z='11' width='300' height='300'],Munícipio,uiramutã-rr,uiramutã-rr,municipio
150010,Abaetetuba - PA,-48.8742526,-1.7295061,[mapbox layers='acaoeducativa.mapadosplanos' api='' options='' lat='-1.7295061' lon='-48.8742526' z='11' width='300' height='300'],Munícipio,abaetetuba-pa,abaetetuba-pa,municipio
150013,Abel Figueiredo - PA,-48.393108,-4.955021,[mapbox layers='acaoeducativa.mapadosplanos' api='' options='' lat='-4.955020999999999' lon='-48.393108' z='11' width='300' height='300'],Munícipio,abel figueiredo-pa,abel-figueiredo-pa,municipio
150020,Acará - PA,-48.1974494,-1.9618356,[mapbox layers='acaoeducativa.mapadosplanos' api='' options='' lat='-1.9618356' lon='-48.1974494' z='11' width='300' height='300'],Munícipio,acará-pa,acará-pa,municipio
150030,Afuá - PA,-50.3852928,-0.1551935,[mapbox layers='acaoeducativa.mapadosplanos' api='' options='' lat='-0.1551935' lon='-50.38529279999999' z='11' width='300' height='300'],Munícipio,afuá-pa,afuá-pa,municipio
150034,Água Azul do Norte - PA,-50.4672083,-6.8018394,[mapbox layers='acaoeducativa.mapadosplanos' api='' options='' lat='-6.8018394' lon='-50.4672083' z='11' width='300' height='300'],Munícipio,água azul do norte-pa,água-azul-do-norte-pa,municipio
150040,Alenquer - PA,-54.7365512,-1.9419598,[mapbox layers='acaoeducativa.mapadosplanos' api='' options='' lat='-1.9419598' lon='-54.7365512' z='11' width='300' height='300'],Munícipio,alenquer-pa,alenquer-pa,municipio
150050,Almeirim - PA,-52.5776309,-1.5271831,[mapbox layers='acaoeducativa.mapadosplanos' api='' options='' lat='-1.5271831' lon='-52.5776309' z='11' width='300' height='300'],Munícipio,almeirim-pa,almeirim-pa,municipio
150060,Altamira - PA,-52.2123383,-3.1962012,[mapbox layers='acaoeducativa.mapadosplanos' api='' options='' lat='-3.1962012' lon='-52.2123383' z='11' width='300' height='300'],Munícipio,altamira-pa,altamira-pa,municipio
150070,Anajás - PA,-49.9404331,-0.9873395,[mapbox layers='acaoeducativa.mapadosplanos' api='' options='' lat='-0.9873394999999999' lon='-49.9404331' z='11' width='300' height='300'],Munícipio,anajás-pa,anajás-pa,municipio
150080,Ananindeua - PA,-48.3721754,-1.366826,[mapbox layers='acaoeducativa.mapadosplanos' api='' options='' lat='-1.366826' lon='-48.3721754' z='11' width='300' height='300'],Munícipio,ananindeua-pa,ananindeua-pa,municipio
150085,Anapu - PA,-51.1986425,-3.4725452,[mapbox layers='acaoeducativa.mapadosplanos' api='' options='' lat='-3.4725452' lon='-51.1986425' z='11' width='300' height='300'],Munícipio,anapu-pa,anapu-pa,municipio
150090,Augusto Corrêa - PA,-46.6436922,-1.0234451,[mapbox layers='acaoeducativa.mapadosplanos' api='' options='' lat='-1.0234451' lon='-46.6436922' z='11' width='300' height='300'],Munícipio,augusto corrêa-pa,augusto-corrêa-pa,municipio
150095,Aurora do Pará - PA,-47.5556973,-2.1343858,[mapbox layers='acaoeducativa.mapadosplanos' api='' options='' lat='-2.1343858' lon='-47.5556973' z='11' width='300' height='300'],Munícipio,aurora do pará-pa,aurora-do-pará-pa,municipio
150100,Aveiro - PA,-55.320374,-3.6108529,[mapbox layers='acaoeducativa.mapadosplanos' api='' options='' lat='-3.6108529' lon='-55.320374' z='11' width='300' height='300'],Munícipio,aveiro-pa,aveiro-pa,municipio
150110,Bagre - PA,-50.1644337,-1.9003458,[mapbox layers='acaoeducativa.mapadosplanos' api='' options='' lat='-1.9003458' lon='-50.1644337' z='11' width='300' height='300'],Munícipio,bagre-pa,bagre-pa,municipio
150120,Baião - PA,-49.6628009,-2.793101,[mapbox layers='acaoeducativa.mapadosplanos' api='' options='' lat='-2.793101' lon='-49.6628009' z='11' width='300' height='300'],Munícipio,baião-pa,baião-pa,municipio
150125,Bannach - PA,-50.3964384,-7.3483753,[mapbox layers='acaoeducativa.mapadosplanos' api='' options='' lat='-7.3483753' lon='-50.3964384' z='11' width='300' height='300'],Munícipio,bannach-pa,bannach-pa,municipio
150130,Barcarena - PA,-48.617001,-1.5189079,[mapbox layers='acaoeducativa.mapadosplanos' api='' options='' lat='-1.5189079' lon='-48.61700099999999' z='11' width='300' height='300'],Munícipio,barcarena-pa,barcarena-pa,municipio
150140,Belém - PA,-48.5023682,-1.4550205,[mapbox layers='acaoeducativa.mapadosplanos' api='' options='' lat='-1.4550205' lon='-48.5023682' z='11' width='300' height='300'],Munícipio,belém-pa,belém-pa,municipio
150145,Belterra - PA,-54.8883213,-2.6982896,[mapbox layers='acaoeducativa.mapadosplanos' api='' options='' lat='-2.6982896' lon='-54.88832129999999' z='11' width='300' height='300'],Munícipio,belterra-pa,belterra-pa,municipio
150150,Benevides - PA,-48.2433736,-1.36094,[mapbox layers='acaoeducativa.mapadosplanos' api='' options='' lat='-1.36094' lon='-48.2433736' z='11' width='300' height='300'],Munícipio,benevides-pa,benevides-pa,municipio
150157,Bom Jesus do Tocantins - PA,-48.6099204,-5.0499644,[mapbox layers='acaoeducativa.mapadosplanos' api='' options='' lat='-5.049964399999999' lon='-48.60992040000001' z='11' width='300' height='300'],Munícipio,bom jesus do tocantins-pa,bom-jesus-do-tocantins-pa,municipio
150160,Bonito - PA,-47.3063696,-1.3633662,[mapbox layers='acaoeducativa.mapadosplanos' api='' options='' lat='-1.3633662' lon='-47.3063696' z='11' width='300' height='300'],Munícipio,bonito-pa,bonito-pa,municipio
150170,Bragança - PA,-46.7895102,-1.0659524,[mapbox layers='acaoeducativa.mapadosplanos' api='' options='' lat='-1.0659524' lon='-46.7895102' z='11' width='300' height='300'],Munícipio,bragança-pa,bragança-pa,municipio
150172,Brasil Novo - PA,-52.5745085,-3.3376728,[mapbox layers='acaoeducativa.mapadosplanos' api='' options='' lat='-3.3376728' lon='-52.5745085' z='11' width='300' height='300'],Munícipio,brasil novo-pa,brasil-novo-pa,municipio
150175,Brejo Grande do Araguaia - PA,-48.4113786,-5.7041222,[mapbox layers='acaoeducativa.mapadosplanos' api='' options='' lat='-5.7041222' lon='-48.4113786' z='11' width='300' height='300'],Munícipio,brejo grande do araguaia-pa,brejo-grande-do-araguaia-pa,municipio
150178,Breu Branco - PA,-49.4614302,-4.009358,[mapbox layers='acaoeducativa.mapadosplanos' api='' options='' lat='-4.009358' lon='-49.4614302' z='11' width='300' height='300'],Munícipio,breu branco-pa,breu-branco-pa,municipio
150180,Breves - PA,-50.4808365,-1.6825624,[mapbox layers='acaoeducativa.mapadosplanos' api='' options='' lat='-1.6825624' lon='-50.4808365' z='11' width='300' height='300'],Munícipio,breves-pa,breves-pa,municipio
150190,Bujaru - PA,-48.0435493,-1.52071,[mapbox layers='acaoeducativa.mapadosplanos' api='' options='' lat='-1.52071' lon='-48.0435493' z='11' width='300' height='300'],Munícipio,bujaru-pa,bujaru-pa,municipio
150195,Cachoeira do Piriá - PA,-46.5707208,-1.7425157,[mapbox layers='acaoeducativa.mapadosplanos' api='' options='' lat='-1.7425157' lon='-46.5707208' z='11' width='300' height='300'],Munícipio,cachoeira do piriá-pa,cachoeira-do-piriá-pa,municipio
150200,Cachoeira do Arari - PA,-48.957358,-1.0044187,[mapbox layers='acaoeducativa.mapadosplanos' api='' options='' lat='-1.0044187' lon='-48.957358' z='11' width='300' height='300'],Munícipio,cachoeira do arari-pa,cachoeira-do-arari-pa,municipio
150210,Cametá - PA,-49.5122828,-2.254065,[mapbox layers='acaoeducativa.mapadosplanos' api='' options='' lat='-2.254065' lon='-49.5122828' z='11' width='300' height='300'],Munícipio,cametá-pa,cametá-pa,municipio
150215,Canaã dos Carajás - PA,-49.8784355,-6.4973713,[mapbox layers='acaoeducativa.mapadosplanos' api='' options='' lat='-6.497371299999999' lon='-49.8784355' z='11' width='300' height='300'],Munícipio,canaã dos carajás-pa,canaã-dos-carajás-pa,municipio
150220,Capanema - PA,-47.1827657,-1.1932911,[mapbox layers='acaoeducativa.mapadosplanos' api='' options='' lat='-1.1932911' lon='-47.1827657' z='11' width='300' height='300'],Munícipio,capanema-pa,capanema-pa,municipio
150230,Capitão Poço - PA,-47.0659101,-1.7464396,[mapbox layers='acaoeducativa.mapadosplanos' api='' options='' lat='-1.7464396' lon='-47.0659101' z='11' width='300' height='300'],Munícipio,capitão poço-pa,capitão-poço-pa,municipio
150240,Castanhal - PA,-47.9221325,-1.2973326,[mapbox layers='acaoeducativa.mapadosplanos' api='' options='' lat='-1.2973326' lon='-47.9221325' z='11' width='300' height='300'],Munícipio,castanhal-pa,castanhal-pa,municipio
150250,Chaves - PA,-49.9884324,-0.1603356,[mapbox layers='acaoeducativa.mapadosplanos' api='' options='' lat='-0.1603356' lon='-49.9884324' z='11' width='300' height='300'],Munícipio,chaves-pa,chaves-pa,municipio
150260,Colares - PA,-48.2730417,-0.9416604,[mapbox layers='acaoeducativa.mapadosplanos' api='' options='' lat='-0.9416604' lon='-48.2730417' z='11' width='300' height='300'],Munícipio,colares-pa,colares-pa,municipio
150270,Conceição do Araguaia - PA,-49.2643163,-8.2633441,[mapbox layers='acaoeducativa.mapadosplanos' api='' options='' lat='-8.2633441' lon='-49.2643163' z='11' width='300' height='300'],Munícipio,conceição do araguaia-pa,conceição-do-araguaia-pa,municipio
150275,Concórdia do Pará - PA,-47.9494588,-1.9915599,[mapbox layers='acaoeducativa.mapadosplanos' api='' options='' lat='-1.9915599' lon='-47.9494588' z='11' width='300' height='300'],Munícipio,concórdia do pará-pa,concórdia-do-pará-pa,municipio
150276,Cumaru do Norte - PA,-50.7734542,-7.8245093,[mapbox layers='acaoeducativa.mapadosplanos' api='' options='' lat='-7.8245093' lon='-50.7734542' z='11' width='300' height='300'],Munícipio,cumaru do norte-pa,cumaru-do-norte-pa,municipio
150277,Curionópolis - PA,-49.5610581,-6.0661643,[mapbox layers='acaoeducativa.mapadosplanos' api='' options='' lat='-6.0661643' lon='-49.5610581' z='11' width='300' height='300'],Munícipio,curionópolis-pa,curionópolis-pa,municipio
150280,Curralinho - PA,-49.8028074,-1.8026863,[mapbox layers='acaoeducativa.mapadosplanos' api='' options='' lat='-1.8026863' lon='-49.8028074' z='11' width='300' height='300'],Munícipio,curralinho-pa,curralinho-pa,municipio
150285,Curuá - PA,-55.1696626,-1.9053245,[mapbox layers='acaoeducativa.mapadosplanos' api='' options='' lat='-1.9053245' lon='-55.1696626' z='11' width='300' height='300'],Munícipio,curuá-pa,curuá-pa,municipio
150290,Curuçá - PA,-47.851888,-0.7398782,[mapbox layers='acaoeducativa.mapadosplanos' api='' options='' lat='-0.7398781999999999' lon='-47.851888' z='11' width='300' height='300'],Munícipio,curuçá-pa,curuçá-pa,municipio
150293,Dom Eliseu - PA,-47.5566082,-4.2966107,[mapbox layers='acaoeducativa.mapadosplanos' api='' options='' lat='-4.2966107' lon='-47.5566082' z='11' width='300' height='300'],Munícipio,dom eliseu-pa,dom-eliseu-pa,municipio
150295,Eldorado dos Carajás - PA,-49.3519429,-6.1029486,[mapbox layers='acaoeducativa.mapadosplanos' api='' options='' lat='-6.1029486' lon='-49.3519429' z='11' width='300' height='300'],Munícipio,eldorado dos carajás-pa,eldorado-dos-carajás-pa,municipio
150300,Faro - PA,-56.74214,-2.1696793,[mapbox layers='acaoeducativa.mapadosplanos' api='' options='' lat='-2.1696793' lon='-56.74214' z='11' width='300' height='300'],Munícipio,faro-pa,faro-pa,municipio
150304,Floresta do Araguaia - PA,-49.7134584,-7.55435,[mapbox layers='acaoeducativa.mapadosplanos' api='' options='' lat='-7.554349999999999' lon='-49.7134584' z='11' width='300' height='300'],Munícipio,floresta do araguaia-pa,floresta-do-araguaia-pa,municipio
150307,Garrafão do Norte - PA,-47.049594,-1.9329767,[mapbox layers='acaoeducativa.mapadosplanos' api='' options='' lat='-1.9329767' lon='-47.049594' z='11' width='300' height='300'],Munícipio,garrafão do norte-pa,garrafão-do-norte-pa,municipio
150309,Goianésia do Pará - PA,-49.0920198,-3.8434973,[mapbox layers='acaoeducativa.mapadosplanos' api='' options='' lat='-3.8434973' lon='-49.0920198' z='11' width='300' height='300'],Munícipio,goianésia do pará-pa,goianésia-do-pará-pa,municipio
150310,Gurupá - PA,-51.6404424,-1.4053426,[mapbox layers='acaoeducativa.mapadosplanos' api='' options='' lat='-1.4053426' lon='-51.6404424' z='11' width='300' height='300'],Munícipio,gurupá-pa,gurupá-pa,municipio
150320,Igarapé-Açu - PA,-47.6218076,-1.1282376,[mapbox layers='acaoeducativa.mapadosplanos' api='' options='' lat='-1.1282376' lon='-47.6218076' z='11' width='300' height='300'],Munícipio,igarapé-açu-pa,igarapé-açu-pa,municipio
150330,Igarapé-Miri - PA,-48.9614892,-1.9724245,[mapbox layers='acaoeducativa.mapadosplanos' api='' options='' lat='-1.9724245' lon='-48.9614892' z='11' width='300' height='300'],Munícipio,igarapé-miri-pa,igarapé-miri-pa,municipio
150340,Inhangapi - PA,-47.9106395,-1.348463,[mapbox layers='acaoeducativa.mapadosplanos' api='' options='' lat='-1.348463' lon='-47.91063949999999' z='11' width='300' height='300'],Munícipio,inhangapi-pa,inhangapi-pa,municipio
150345,Ipixuna do Pará - PA,-47.4958991,-2.5586384,[mapbox layers='acaoeducativa.mapadosplanos' api='' options='' lat='-2.5586384' lon='-47.4958991' z='11' width='300' height='300'],Munícipio,ipixuna do pará-pa,ipixuna-do-pará-pa,municipio
150350,Irituia - PA,-47.4412995,-1.7744627,[mapbox layers='acaoeducativa.mapadosplanos' api='' options='' lat='-1.7744627' lon='-47.4412995' z='11' width='300' height='300'],Munícipio,irituia-pa,irituia-pa,municipio
150360,Itaituba - PA,-55.989677,-4.2691317,[mapbox layers='acaoeducativa.mapadosplanos' api='' options='' lat='-4.2691317' lon='-55.989677' z='11' width='300' height='300'],Munícipio,itaituba-pa,itaituba-pa,municipio
150370,Itupiranga - PA,-49.3656303,-5.1734646,[mapbox layers='acaoeducativa.mapadosplanos' api='' options='' lat='-5.1734646' lon='-49.3656303' z='11' width='300' height='300'],Munícipio,itupiranga-pa,itupiranga-pa,municipio
150375,Jacareacanga - PA,-57.824474,-6.2066039,[mapbox layers='acaoeducativa.mapadosplanos' api='' options='' lat='-6.206603899999999' lon='-57.824474' z='11' width='300' height='300'],Munícipio,jacareacanga-pa,jacareacanga-pa,municipio
150380,Jacundá - PA,-49.1170012,-4.4520337,[mapbox layers='acaoeducativa.mapadosplanos' api='' options='' lat='-4.452033699999999' lon='-49.1170012' z='11' width='300' height='300'],Munícipio,jacundá-pa,jacundá-pa,municipio
150390,Juruti - PA,-56.0930916,-2.1563515,[mapbox layers='acaoeducativa.mapadosplanos' api='' options='' lat='-2.1563515' lon='-56.09309159999999' z='11' width='300' height='300'],Munícipio,juruti-pa,juruti-pa,municipio
150400,Limoeiro do Ajuru - PA,-49.3906889,-1.8981159,[mapbox layers='acaoeducativa.mapadosplanos' api='' options='' lat='-1.8981159' lon='-49.3906889' z='11' width='300' height='300'],Munícipio,limoeiro do ajuru-pa,limoeiro-do-ajuru-pa,municipio
150405,Mãe do Rio - PA,-47.5535773,-2.0606934,[mapbox layers='acaoeducativa.mapadosplanos' api='' options='' lat='-2.0606934' lon='-47.5535773' z='11' width='300' height='300'],Munícipio,mãe do rio-pa,mãe-do-rio-pa,municipio
150410,Magalhães Barata - PA,-47.6027574,-0.7979896,[mapbox layers='acaoeducativa.mapadosplanos' api='' options='' lat='-0.7979896' lon='-47.60275739999999' z='11' width='300' height='300'],Munícipio,magalhães barata-pa,magalhães-barata-pa,municipio
150420,Marabá - PA,-49.1169278,-5.3699668,[mapbox layers='acaoeducativa.mapadosplanos' api='' options='' lat='-5.369966799999999' lon='-49.1169278' z='11' width='300' height='300'],Munícipio,marabá-pa,marabá-pa,municipio
150430,Maracanã - PA,-47.4511864,-0.7785395,[mapbox layers='acaoeducativa.mapadosplanos' api='' options='' lat='-0.7785394999999999' lon='-47.4511864' z='11' width='300' height='300'],Munícipio,maracanã-pa,maracanã-pa,municipio
150440,Marapanim - PA,-47.697684,-0.7104631,[mapbox layers='acaoeducativa.mapadosplanos' api='' options='' lat='-0.7104631' lon='-47.697684' z='11' width='300' height='300'],Munícipio,marapanim-pa,marapanim-pa,municipio
150442,Marituba - PA,-48.3432032,-1.3553199,[mapbox layers='acaoeducativa.mapadosplanos' api='' options='' lat='-1.3553199' lon='-48.3432032' z='11' width='300' height='300'],Munícipio,marituba-pa,marituba-pa,municipio
150445,Medicilândia - PA,-52.8891714,-3.4486493,[mapbox layers='acaoeducativa.mapadosplanos' api='' options='' lat='-3.4486493' lon='-52.8891714' z='11' width='300' height='300'],Munícipio,medicilândia-pa,medicilândia-pa,municipio
150450,Melgaço - PA,-50.716958,-1.8048211,[mapbox layers='acaoeducativa.mapadosplanos' api='' options='' lat='-1.8048211' lon='-50.716958' z='11' width='300' height='300'],Munícipio,melgaço-pa,melgaço-pa,municipio
150460,Mocajuba - PA,-49.4832097,-2.5920149,[mapbox layers='acaoeducativa.mapadosplanos' api='' options='' lat='-2.5920149' lon='-49.4832097' z='11' width='300' height='300'],Munícipio,mocajuba-pa,mocajuba-pa,municipio
150470,Moju - PA,-48.765215,-1.884701,[mapbox layers='acaoeducativa.mapadosplanos' api='' options='' lat='-1.884701' lon='-48.765215' z='11' width='300' height='300'],Munícipio,moju-pa,moju-pa,municipio
150480,Monte Alegre - PA,-54.0828906,-1.9989463,[mapbox layers='acaoeducativa.mapadosplanos' api='' options='' lat='-1.9989463' lon='-54.0828906' z='11' width='300' height='300'],Munícipio,monte alegre-pa,monte-alegre-pa,municipio
150490,Muaná - PA,-49.2174277,-1.5283438,[mapbox layers='acaoeducativa.mapadosplanos' api='' options='' lat='-1.5283438' lon='-49.21742769999999' z='11' width='300' height='300'],Munícipio,muaná-pa,muaná-pa,municipio
150495,Nova Esperança do Piriá - PA,-46.9664136,-2.2693488,[mapbox layers='acaoeducativa.mapadosplanos' api='' options='' lat='-2.2693488' lon='-46.9664136' z='11' width='300' height='300'],Munícipio,nova esperança do piriá-pa,nova-esperança-do-piriá-pa,municipio
150497,Nova Ipixuna - PA,-49.0719463,-4.9229444,[mapbox layers='acaoeducativa.mapadosplanos' api='' options='' lat='-4.9229444' lon='-49.0719463' z='11' width='300' height='300'],Munícipio,nova ipixuna-pa,nova-ipixuna-pa,municipio
150500,Nova Timboteua - PA,-47.3917831,-1.2145102,[mapbox layers='acaoeducativa.mapadosplanos' api='' options='' lat='-1.2145102' lon='-47.3917831' z='11' width='300' height='300'],Munícipio,nova timboteua-pa,nova-timboteua-pa,municipio
150503,Novo Progresso - PA,-55.3786,-7.1446283,[mapbox layers='acaoeducativa.mapadosplanos' api='' options='' lat='-7.1446283' lon='-55.3786' z='11' width='300' height='300'],Munícipio,novo progresso-pa,novo-progresso-pa,municipio
150506,Novo Repartimento - PA,-49.7964324,-4.3313596,[mapbox layers='acaoeducativa.mapadosplanos' api='' options='' lat='-4.3313596' lon='-49.7964324' z='11' width='300' height='300'],Munícipio,novo repartimento-pa,novo-repartimento-pa,municipio
150510,Óbidos - PA,-55.5179344,-1.9100894,[mapbox layers='acaoeducativa.mapadosplanos' api='' options='' lat='-1.9100894' lon='-55.51793439999999' z='11' width='300' height='300'],Munícipio,óbidos-pa,óbidos-pa,municipio
150520,Oeiras do Pará - PA,-49.8456277,-2.0023944,[mapbox layers='acaoeducativa.mapadosplanos' api='' options='' lat='-2.0023944' lon='-49.84562769999999' z='11' width='300' height='300'],Munícipio,oeiras do pará-pa,oeiras-do-pará-pa,municipio
150530,Oriximiná - PA,-55.8628382,-1.7607546,[mapbox layers='acaoeducativa.mapadosplanos' api='' options='' lat='-1.7607546' lon='-55.8628382' z='11' width='300' height='300'],Munícipio,oriximiná-pa,oriximiná-pa,municipio
150540,Ourém - PA,-47.1104243,-1.5482043,[mapbox layers='acaoeducativa.mapadosplanos' api='' options='' lat='-1.5482043' lon='-47.1104243' z='11' width='300' height='300'],Munícipio,ourém-pa,ourém-pa,municipio
150543,Ourilândia do Norte - PA,-51.081486,-6.7492966,[mapbox layers='acaoeducativa.mapadosplanos' api='' options='' lat='-6.7492966' lon='-51.081486' z='11' width='300' height='300'],Munícipio,ourilândia do norte-pa,ourilândia-do-norte-pa,municipio
150548,Pacajá - PA,-50.6379193,-3.8354185,[mapbox layers='acaoeducativa.mapadosplanos' api='' options='' lat='-3.8354185' lon='-50.6379193' z='11' width='300' height='300'],Munícipio,pacajá-pa,pacajá-pa,municipio
150549,Palestina do Pará - PA,-48.3177581,-5.7495485,[mapbox layers='acaoeducativa.mapadosplanos' api='' options='' lat='-5.7495485' lon='-48.3177581' z='11' width='300' height='300'],Munícipio,palestina do pará-pa,palestina-do-pará-pa,municipio
150550,Paragominas - PA,-47.3534523,-2.9973851,[mapbox layers='acaoeducativa.mapadosplanos' api='' options='' lat='-2.9973851' lon='-47.35345230000001' z='11' width='300' height='300'],Munícipio,paragominas-pa,paragominas-pa,municipio
150553,Parauapebas - PA,-49.9043353,-6.070741,[mapbox layers='acaoeducativa.mapadosplanos' api='' options='' lat='-6.070741' lon='-49.9043353' z='11' width='300' height='300'],Munícipio,parauapebas-pa,parauapebas-pa,municipio
150555,Pau D'Arco - PA,-50.0425567,-7.8334951,[mapbox layers='acaoeducativa.mapadosplanos' api='' options='' lat='-7.8334951' lon='-50.0425567' z='11' width='300' height='300'],Munícipio,pau darco-pa,pau-darco-pa,municipio
150560,Peixe-Boi - PA,-47.3151916,-1.2047552,[mapbox layers='acaoeducativa.mapadosplanos' api='' options='' lat='-1.2047552' lon='-47.3151916' z='11' width='300' height='300'],Munícipio,peixe-boi-pa,peixe-boi-pa,municipio
150563,Piçarra - PA,-48.8712491,-6.4421019,[mapbox layers='acaoeducativa.mapadosplanos' api='' options='' lat='-6.4421019' lon='-48.8712491' z='11' width='300' height='300'],Munícipio,piçarra-pa,piçarra-pa,municipio
150565,Placas - PA,-54.2198471,-3.8730728,[mapbox layers='acaoeducativa.mapadosplanos' api='' options='' lat='-3.8730728' lon='-54.2198471' z='11' width='300' height='300'],Munícipio,placas-pa,placas-pa,municipio
150570,Ponta de Pedras - PA,-48.8703435,-1.390551,[mapbox layers='acaoeducativa.mapadosplanos' api='' options='' lat='-1.390551' lon='-48.8703435' z='11' width='300' height='300'],Munícipio,ponta de pedras-pa,ponta-de-pedras-pa,municipio
150580,Portel - PA,-50.8207377,-1.9379838,[mapbox layers='acaoeducativa.mapadosplanos' api='' options='' lat='-1.9379838' lon='-50.8207377' z='11' width='300' height='300'],Munícipio,portel-pa,portel-pa,municipio
150590,Porto de Moz - PA,-52.238446,-1.7483444,[mapbox layers='acaoeducativa.mapadosplanos' api='' options='' lat='-1.7483444' lon='-52.238446' z='11' width='300' height='300'],Munícipio,porto de moz-pa,porto-de-moz-pa,municipio
150600,Prainha - PA,-53.4755831,-1.7942643,[mapbox layers='acaoeducativa.mapadosplanos' api='' options='' lat='-1.7942643' lon='-53.47558309999999' z='11' width='300' height='300'],Munícipio,prainha-pa,prainha-pa,municipio
150610,Primavera - PA,-47.1178763,-0.9420186,[mapbox layers='acaoeducativa.mapadosplanos' api='' options='' lat='-0.9420185999999999' lon='-47.1178763' z='11' width='300' height='300'],Munícipio,primavera-pa,primavera-pa,municipio
150611,Quatipuru - PA,-47.0111336,-0.8989103,[mapbox layers='acaoeducativa.mapadosplanos' api='' options='' lat='-0.8989102999999999' lon='-47.0111336' z='11' width='300' height='300'],Munícipio,quatipuru-pa,quatipuru-pa,municipio
150613,Redenção - PA,-50.0228638,-8.0429342,[mapbox layers='acaoeducativa.mapadosplanos' api='' options='' lat='-8.0429342' lon='-50.0228638' z='11' width='300' height='300'],Munícipio,redenção-pa,redenção-pa,municipio
150616,Rio Maria - PA,-50.0320482,-7.3188865,[mapbox layers='acaoeducativa.mapadosplanos' api='' options='' lat='-7.318886500000001' lon='-50.0320482' z='11' width='300' height='300'],Munícipio,rio maria-pa,rio-maria-pa,municipio
150618,Rondon do Pará - PA,-48.0669888,-4.7747732,[mapbox layers='acaoeducativa.mapadosplanos' api='' options='' lat='-4.774773199999999' lon='-48.0669888' z='11' width='300' height='300'],Munícipio,rondon do pará-pa,rondon-do-pará-pa,municipio
150619,Rurópolis - PA,-54.9141831,-4.0883864,[mapbox layers='acaoeducativa.mapadosplanos' api='' options='' lat='-4.0883864' lon='-54.9141831' z='11' width='300' height='300'],Munícipio,rurópolis-pa,rurópolis-pa,municipio
150620,Salinópolis - PA,-47.3461257,-0.6313386,[mapbox layers='acaoeducativa.mapadosplanos' api='' options='' lat='-0.6313386' lon='-47.34612569999999' z='11' width='300' height='300'],Munícipio,salinópolis-pa,salinópolis-pa,municipio
150630,Salvaterra - PA,-48.5122232,-0.7590043,[mapbox layers='acaoeducativa.mapadosplanos' api='' options='' lat='-0.7590043' lon='-48.51222320000001' z='11' width='300' height='300'],Munícipio,salvaterra-pa,salvaterra-pa,municipio
150635,Santa Bárbara do Pará - PA,-48.2940449,-1.2240991,[mapbox layers='acaoeducativa.mapadosplanos' api='' options='' lat='-1.2240991' lon='-48.2940449' z='11' width='300' height='300'],Munícipio,santa bárbara do pará-pa,santa-bárbara-do-pará-pa,municipio
150640,Santa Cruz do Arari - PA,-49.1634273,-0.6643386,[mapbox layers='acaoeducativa.mapadosplanos' api='' options='' lat='-0.6643386' lon='-49.1634273' z='11' width='300' height='300'],Munícipio,santa cruz do arari-pa,santa-cruz-do-arari-pa,municipio
150650,Santa Isabel do Pará - PA,-48.161003,-1.2993756,[mapbox layers='acaoeducativa.mapadosplanos' api='' options='' lat='-1.2993756' lon='-48.161003' z='11' width='300' height='300'],Munícipio,santa isabel do pará-pa,santa-isabel-do-pará-pa,municipio
150655,Santa Luzia do Pará - PA,-46.9240981,-1.4978631,[mapbox layers='acaoeducativa.mapadosplanos' api='' options='' lat='-1.4978631' lon='-46.92409809999999' z='11' width='300' height='300'],Munícipio,santa luzia do pará-pa,santa-luzia-do-pará-pa,municipio
150658,Santa Maria das Barreiras - PA,-49.7281159,-8.8362135,[mapbox layers='acaoeducativa.mapadosplanos' api='' options='' lat='-8.8362135' lon='-49.7281159' z='11' width='300' height='300'],Munícipio,santa maria das barreiras-pa,santa-maria-das-barreiras-pa,municipio
150660,Santa Maria do Pará - PA,-47.5764653,-1.350138,[mapbox layers='acaoeducativa.mapadosplanos' api='' options='' lat='-1.350138' lon='-47.5764653' z='11' width='300' height='300'],Munícipio,santa maria do pará-pa,santa-maria-do-pará-pa,municipio
150670,Santana do Araguaia - PA,-50.6267643,-9.5242718,[mapbox layers='acaoeducativa.mapadosplanos' api='' options='' lat='-9.5242718' lon='-50.6267643' z='11' width='300' height='300'],Munícipio,santana do araguaia-pa,santana-do-araguaia-pa,municipio
150680,Santarém - PA,-54.6987351,-2.4394353,[mapbox layers='acaoeducativa.mapadosplanos' api='' options='' lat='-2.4394353' lon='-54.6987351' z='11' width='300' height='300'],Munícipio,santarém-pa,santarém-pa,municipio
150690,Santarém Novo - PA,-47.385646,-0.9306605,[mapbox layers='acaoeducativa.mapadosplanos' api='' options='' lat='-0.9306605' lon='-47.385646' z='11' width='300' height='300'],Munícipio,santarém novo-pa,santarém-novo-pa,municipio
150700,Santo Antônio do Tauá - PA,-48.1291788,-1.1524067,[mapbox layers='acaoeducativa.mapadosplanos' api='' options='' lat='-1.1524067' lon='-48.1291788' z='11' width='300' height='300'],Munícipio,santo antônio do tauá-pa,santo-antônio-do-tauá-pa,municipio
150710,São Caetano de Odivelas - PA,-48.0281591,-0.7444592,[mapbox layers='acaoeducativa.mapadosplanos' api='' options='' lat='-0.7444592' lon='-48.0281591' z='11' width='300' height='300'],Munícipio,são caetano de odivelas-pa,são-caetano-de-odivelas-pa,municipio
150715,São Domingos do Araguaia - PA,-48.7298385,-5.537532,[mapbox layers='acaoeducativa.mapadosplanos' api='' options='' lat='-5.537532' lon='-48.7298385' z='11' width='300' height='300'],Munícipio,são domingos do araguaia-pa,são-domingos-do-araguaia-pa,municipio
150720,São Domingos do Capim - PA,-47.7658346,-1.675948,[mapbox layers='acaoeducativa.mapadosplanos' api='' options='' lat='-1.675948' lon='-47.76583460000001' z='11' width='300' height='300'],Munícipio,são domingos do capim-pa,são-domingos-do-capim-pa,municipio
150730,São Félix do Xingu - PA,-51.9728212,-6.6416592,[mapbox layers='acaoeducativa.mapadosplanos' api='' options='' lat='-6.6416592' lon='-51.9728212' z='11' width='300' height='300'],Munícipio,são félix do xingu-pa,são-félix-do-xingu-pa,municipio
150740,São Francisco do Pará - PA,-47.7938677,-1.1708689,[mapbox layers='acaoeducativa.mapadosplanos' api='' options='' lat='-1.1708689' lon='-47.7938677' z='11' width='300' height='300'],Munícipio,são francisco do pará-pa,são-francisco-do-pará-pa,municipio
150745,São Geraldo do Araguaia - PA,-48.5615491,-6.3935719,[mapbox layers='acaoeducativa.mapadosplanos' api='' options='' lat='-6.3935719' lon='-48.56154910000001' z='11' width='300' height='300'],Munícipio,são geraldo do araguaia-pa,são-geraldo-do-araguaia-pa,municipio
150746,São João da Ponta - PA,-47.9214195,-0.8508399,[mapbox layers='acaoeducativa.mapadosplanos' api='' options='' lat='-0.8508399' lon='-47.9214195' z='11' width='300' height='300'],Munícipio,são joão da ponta-pa,são-joão-da-ponta-pa,municipio
150747,São João de Pirabas - PA,-47.1811247,-0.7798195,[mapbox layers='acaoeducativa.mapadosplanos' api='' options='' lat='-0.7798195' lon='-47.1811247' z='11' width='300' height='300'],Munícipio,são joão de pirabas-pa,são-joão-de-pirabas-pa,municipio
150750,São João do Araguaia - PA,-48.7884968,-5.365196,[mapbox layers='acaoeducativa.mapadosplanos' api='' options='' lat='-5.365196' lon='-48.7884968' z='11' width='300' height='300'],Munícipio,são joão do araguaia-pa,são-joão-do-araguaia-pa,municipio
150760,São Miguel do Guamá - PA,-47.4818517,-1.6276657,[mapbox layers='acaoeducativa.mapadosplanos' api='' options='' lat='-1.6276657' lon='-47.4818517' z='11' width='300' height='300'],Munícipio,são miguel do guamá-pa,são-miguel-do-guamá-pa,municipio
150770,São Sebastião da Boa Vista - PA,-49.5528509,-1.7131098,[mapbox layers='acaoeducativa.mapadosplanos' api='' options='' lat='-1.7131098' lon='-49.5528509' z='11' width='300' height='300'],Munícipio,são sebastião da boa vista-pa,são-sebastião-da-boa-vista-pa,municipio
150775,Sapucaia - PA,-49.6917927,-6.9372928,[mapbox layers='acaoeducativa.mapadosplanos' api='' options='' lat='-6.937292800000001' lon='-49.6917927' z='11' width='300' height='300'],Munícipio,sapucaia-pa,sapucaia-pa,municipio
150780,Senador José Porfírio - PA,-51.9370745,-2.581009,[mapbox layers='acaoeducativa.mapadosplanos' api='' options='' lat='-2.581009' lon='-51.93707449999999' z='11' width='300' height='300'],Munícipio,senador josé porfírio-pa,senador-josé-porfírio-pa,municipio
150790,Soure - PA,-48.5074642,-0.6673947,[mapbox layers='acaoeducativa.mapadosplanos' api='' options='' lat='-0.6673947' lon='-48.5074642' z='11' width='300' height='300'],Munícipio,soure-pa,soure-pa,municipio
150795,Tailândia - PA,-48.9542455,-2.9459712,[mapbox layers='acaoeducativa.mapadosplanos' api='' options='' lat='-2.9459712' lon='-48.9542455' z='11' width='300' height='300'],Munícipio,tailândia-pa,tailândia-pa,municipio
150796,Terra Alta - PA,-47.9060664,-1.0393251,[mapbox layers='acaoeducativa.mapadosplanos' api='' options='' lat='-1.0393251' lon='-47.9060664' z='11' width='300' height='300'],Munícipio,terra alta-pa,terra-alta-pa,municipio
150797,Terra Santa - PA,-56.4845826,-2.1016731,[mapbox layers='acaoeducativa.mapadosplanos' api='' options='' lat='-2.1016731' lon='-56.4845826' z='11' width='300' height='300'],Munícipio,terra santa-pa,terra-santa-pa,municipio
150800,Tomé-Açu - PA,-48.1496432,-2.4183334,[mapbox layers='acaoeducativa.mapadosplanos' api='' options='' lat='-2.4183334' lon='-48.14964320000001' z='11' width='300' height='300'],Munícipio,tomé-açu-pa,tomé-açu-pa,municipio
150803,Tracuateua - PA,-46.9013029,-1.0801785,[mapbox layers='acaoeducativa.mapadosplanos' api='' options='' lat='-1.0801785' lon='-46.9013029' z='11' width='300' height='300'],Munícipio,tracuateua-pa,tracuateua-pa,municipio
150805,Trairão - PA,-55.9354309,-4.5786721,[mapbox layers='acaoeducativa.mapadosplanos' api='' options='' lat='-4.578672099999999' lon='-55.9354309' z='11' width='300' height='300'],Munícipio,trairão-pa,trairão-pa,municipio
150808,Tucumã - PA,-51.1615345,-6.7422155,[mapbox layers='acaoeducativa.mapadosplanos' api='' options='' lat='-6.742215499999999' lon='-51.16153449999999' z='11' width='300' height='300'],Munícipio,tucumã-pa,tucumã-pa,municipio
150810,Tucuruí - PA,-49.6741093,-3.7695276,[mapbox layers='acaoeducativa.mapadosplanos' api='' options='' lat='-3.7695276' lon='-49.6741093' z='11' width='300' height='300'],Munícipio,tucuruí-pa,tucuruí-pa,municipio
150812,Ulianópolis - PA,-47.4905315,-3.7588856,[mapbox layers='acaoeducativa.mapadosplanos' api='' options='' lat='-3.7588856' lon='-47.4905315' z='11' width='300' height='300'],Munícipio,ulianópolis-pa,ulianópolis-pa,municipio
150815,Uruará - PA,-53.7354963,-3.7240563,[mapbox layers='acaoeducativa.mapadosplanos' api='' options='' lat='-3.7240563' lon='-53.73549629999999' z='11' width='300' height='300'],Munícipio,uruará-pa,uruará-pa,municipio
150820,Vigia - PA,-48.1310708,-0.863,[mapbox layers='acaoeducativa.mapadosplanos' api='' options='' lat='-0.863' lon='-48.1310708' z='11' width='300' height='300'],Munícipio,vigia-pa,vigia-pa,municipio
150830,Viseu - PA,-46.1433559,-1.2027483,[mapbox layers='acaoeducativa.mapadosplanos' api='' options='' lat='-1.2027483' lon='-46.1433559' z='11' width='300' height='300'],Munícipio,viseu-pa,viseu-pa,municipio
150835,Vitória do Xingu - PA,-52.004574,-2.8838997,[mapbox layers='acaoeducativa.mapadosplanos' api='' options='' lat='-2.8838997' lon='-52.004574' z='11' width='300' height='300'],Munícipio,vitória do xingu-pa,vitória-do-xingu-pa,municipio
150840,Xinguara - PA,-49.9500594,-7.1011424,[mapbox layers='acaoeducativa.mapadosplanos' api='' options='' lat='-7.1011424' lon='-49.9500594' z='11' width='300' height='300'],Munícipio,xinguara-pa,xinguara-pa,municipio
160005,Serra do Navio - AP,-52.0257696,0.8668734,[mapbox layers='acaoeducativa.mapadosplanos' api='' options='' lat='0.8668734' lon='-52.0257696' z='11' width='300' height='300'],Munícipio,serra do navio-ap,serra-do-navio-ap,municipio
160010,Amapá - AP,-50.7944645,2.0510817,[mapbox layers='acaoeducativa.mapadosplanos' api='' options='' lat='2.0510817' lon='-50.7944645' z='11' width='300' height='300'],Munícipio,amapá-ap,amapá-ap,municipio
160015,Pedra Branca do Amapari - AP,-51.9537462,0.7694678,[mapbox layers='acaoeducativa.mapadosplanos' api='' options='' lat='0.7694677999999999' lon='-51.9537462' z='11' width='300' height='300'],Munícipio,pedra branca do amapari-ap,pedra-branca-do-amapari-ap,municipio
160020,Calçoene - AP,-50.9496266,2.4980353,[mapbox layers='acaoeducativa.mapadosplanos' api='' options='' lat='2.4980353' lon='-50.94962659999999' z='11' width='300' height='300'],Munícipio,calçoene-ap,calçoene-ap,municipio
160021,Cutias - AP,-50.7770462,0.953375,[mapbox layers='acaoeducativa.mapadosplanos' api='' options='' lat='0.9533749999999999' lon='-50.7770462' z='11' width='300' height='300'],Munícipio,cutias-ap,cutias-ap,municipio
160023,Ferreira Gomes - AP,-51.1940777,0.8537604,[mapbox layers='acaoeducativa.mapadosplanos' api='' options='' lat='0.8537604' lon='-51.1940777' z='11' width='300' height='300'],Munícipio,ferreira gomes-ap,ferreira-gomes-ap,municipio
160025,Itaubal - AP,-50.7282479,0.5419366,[mapbox layers='acaoeducativa.mapadosplanos' api='' options='' lat='0.5419366' lon='-50.7282479' z='11' width='300' height='300'],Munícipio,itaubal-ap,itaubal-ap,municipio
160027,Laranjal do Jari - AP,-52.4103959,-0.8323593,[mapbox layers='acaoeducativa.mapadosplanos' api='' options='' lat='-0.8323592999999999' lon='-52.4103959' z='11' width='300' height='300'],Munícipio,laranjal do jari-ap,laranjal-do-jari-ap,municipio
160030,Macapá - AP,-51.0665639,0.0344566,[mapbox layers='acaoeducativa.mapadosplanos' api='' options='' lat='0.0344566' lon='-51.0665639' z='11' width='300' height='300'],Munícipio,macapá-ap,macapá-ap,municipio
160040,Mazagão - AP,-51.2859622,-0.1162033,[mapbox layers='acaoeducativa.mapadosplanos' api='' options='' lat='-0.1162033' lon='-51.2859622' z='11' width='300' height='300'],Munícipio,mazagão-ap,mazagão-ap,municipio
160050,Oiapoque - AP,-51.8354444,3.8314881,[mapbox layers='acaoeducativa.mapadosplanos' api='' options='' lat='3.8314881' lon='-51.8354444' z='11' width='300' height='300'],Munícipio,oiapoque-ap,oiapoque-ap,municipio
160053,Porto Grande - AP,-51.409554,0.7043865,[mapbox layers='acaoeducativa.mapadosplanos' api='' options='' lat='0.7043864999999999' lon='-51.409554' z='11' width='300' height='300'],Munícipio,porto grande-ap,porto-grande-ap,municipio
160055,Pracuúba - AP,-50.8753779,1.7238756,[mapbox layers='acaoeducativa.mapadosplanos' api='' options='' lat='1.7238756' lon='-50.8753779' z='11' width='300' height='300'],Munícipio,pracuúba-ap,pracuúba-ap,municipio
160060,Santana - AP,-51.1784316,-0.0442179,[mapbox layers='acaoeducativa.mapadosplanos' api='' options='' lat='-0.0442179' lon='-51.1784316' z='11' width='300' height='300'],Munícipio,santana-ap,santana-ap,municipio
160070,Tartarugalzinho - AP,-50.9114061,1.5059573,[mapbox layers='acaoeducativa.mapadosplanos' api='' options='' lat='1.5059573' lon='-50.9114061' z='11' width='300' height='300'],Munícipio,tartarugalzinho-ap,tartarugalzinho-ap,municipio
160080,Vitória do Jari - AP,-51.9958333,-1.1236111,[mapbox layers='acaoeducativa.mapadosplanos' api='' options='' lat='-1.1236111' lon='-51.9958333' z='11' width='300' height='300'],Munícipio,vitória do jari-ap,vitória-do-jari-ap,municipio
170025,Abreulândia - TO,-49.1506612,-9.6233092,[mapbox layers='acaoeducativa.mapadosplanos' api='' options='' lat='-9.6233092' lon='-49.15066119999999' z='11' width='300' height='300'],Munícipio,abreulândia-to,abreulândia-to,municipio
170030,Aguiarnópolis - TO,-47.4668012,-6.5582507,[mapbox layers='acaoeducativa.mapadosplanos' api='' options='' lat='-6.558250699999999' lon='-47.4668012' z='11' width='300' height='300'],Munícipio,aguiarnópolis-to,aguiarnópolis-to,municipio
170035,Aliança do Tocantins - TO,-48.9412722,-11.3048588,[mapbox layers='acaoeducativa.mapadosplanos' api='' options='' lat='-11.3048588' lon='-48.9412722' z='11' width='300' height='300'],Munícipio,aliança do tocantins-to,aliança-do-tocantins-to,municipio
170040,Almas - TO,-47.1703421,-11.5676447,[mapbox layers='acaoeducativa.mapadosplanos' api='' options='' lat='-11.5676447' lon='-47.1703421' z='11' width='300' height='300'],Munícipio,almas-to,almas-to,municipio
170070,Alvorada - TO,-49.1273953,-12.4775431,[mapbox layers='acaoeducativa.mapadosplanos' api='' options='' lat='-12.4775431' lon='-49.1273953' z='11' width='300' height='300'],Munícipio,alvorada-to,alvorada-to,municipio
170100,Ananás - TO,-48.0697669,-6.3685511,[mapbox layers='acaoeducativa.mapadosplanos' api='' options='' lat='-6.368551099999999' lon='-48.0697669' z='11' width='300' height='300'],Munícipio,ananás-to,ananás-to,municipio
170105,Angico - TO,-47.8670677,-6.3919544,[mapbox layers='acaoeducativa.mapadosplanos' api='' options='' lat='-6.391954399999999' lon='-47.8670677' z='11' width='300' height='300'],Munícipio,angico-to,angico-to,municipio
170110,Aparecida do Rio Negro - TO,-47.9685441,-9.9518784,[mapbox layers='acaoeducativa.mapadosplanos' api='' options='' lat='-9.9518784' lon='-47.9685441' z='11' width='300' height='300'],Munícipio,aparecida do rio negro-to,aparecida-do-rio-negro-to,municipio
170130,Aragominas - TO,-48.5282636,-7.1619001,[mapbox layers='acaoeducativa.mapadosplanos' api='' options='' lat='-7.1619001' lon='-48.5282636' z='11' width='300' height='300'],Munícipio,aragominas-to,aragominas-to,municipio
170190,Araguacema - TO,-49.5577878,-8.8086886,[mapbox layers='acaoeducativa.mapadosplanos' api='' options='' lat='-8.8086886' lon='-49.5577878' z='11' width='300' height='300'],Munícipio,araguacema-to,araguacema-to,municipio
170200,Araguaçu - TO,-49.8162694,-12.930675,[mapbox layers='acaoeducativa.mapadosplanos' api='' options='' lat='-12.930675' lon='-49.8162694' z='11' width='300' height='300'],Munícipio,araguaçu-to,araguaçu-to,municipio
170210,Araguaína - TO,-48.2077896,-7.1920745,[mapbox layers='acaoeducativa.mapadosplanos' api='' options='' lat='-7.192074499999999' lon='-48.2077896' z='11' width='300' height='300'],Munícipio,araguaína-to,araguaína-to,municipio
170215,Araguanã - TO,-48.6444058,-6.5799738,[mapbox layers='acaoeducativa.mapadosplanos' api='' options='' lat='-6.579973799999999' lon='-48.64440580000001' z='11' width='300' height='300'],Munícipio,araguanã-to,araguanã-to,municipio
170220,Araguatins - TO,-48.1189157,-5.6561471,[mapbox layers='acaoeducativa.mapadosplanos' api='' options='' lat='-5.6561471' lon='-48.1189157' z='11' width='300' height='300'],Munícipio,araguatins-to,araguatins-to,municipio
170230,Arapoema - TO,-49.0646494,-7.6544192,[mapbox layers='acaoeducativa.mapadosplanos' api='' options='' lat='-7.654419199999999' lon='-49.06464940000001' z='11' width='300' height='300'],Munícipio,arapoema-to,arapoema-to,municipio
170240,Arraias - TO,-46.9351817,-12.9264218,[mapbox layers='acaoeducativa.mapadosplanos' api='' options='' lat='-12.9264218' lon='-46.9351817' z='11' width='300' height='300'],Munícipio,arraias-to,arraias-to,municipio
170255,Augustinópolis - TO,-47.8895331,-5.4684942,[mapbox layers='acaoeducativa.mapadosplanos' api='' options='' lat='-5.468494199999999' lon='-47.8895331' z='11' width='300' height='300'],Munícipio,augustinópolis-to,augustinópolis-to,municipio
170270,Aurora do Tocantins - TO,-46.4041968,-12.7101405,[mapbox layers='acaoeducativa.mapadosplanos' api='' options='' lat='-12.7101405' lon='-46.40419680000001' z='11' width='300' height='300'],Munícipio,aurora do tocantins-to,aurora-do-tocantins-to,municipio
170290,Axixá do Tocantins - TO,-47.7708204,-5.6149591,[mapbox layers='acaoeducativa.mapadosplanos' api='' options='' lat='-5.6149591' lon='-47.7708204' z='11' width='300' height='300'],Munícipio,axixá do tocantins-to,axixá-do-tocantins-to,municipio
170300,Babaçulândia - TO,-47.7847638,-7.1910789,[mapbox layers='acaoeducativa.mapadosplanos' api='' options='' lat='-7.1910789' lon='-47.7847638' z='11' width='300' height='300'],Munícipio,babaçulândia-to,babaçulândia-to,municipio
170305,Bandeirantes do Tocantins - TO,-48.5845765,-7.7570832,[mapbox layers='acaoeducativa.mapadosplanos' api='' options='' lat='-7.7570832' lon='-48.5845765' z='11' width='300' height='300'],Munícipio,bandeirantes do tocantins-to,bandeirantes-do-tocantins-to,municipio
170307,Barra do Ouro - TO,-47.677778,-7.694722,[mapbox layers='acaoeducativa.mapadosplanos' api='' options='' lat='-7.694722' lon='-47.677778' z='11' width='300' height='300'],Munícipio,barra do ouro-to,barra-do-ouro-to,municipio
170310,Barrolândia - TO,-48.7188208,-9.8365458,[mapbox layers='acaoeducativa.mapadosplanos' api='' options='' lat='-9.8365458' lon='-48.7188208' z='11' width='300' height='300'],Munícipio,barrolândia-to,barrolândia-to,municipio
170320,Bernardo Sayão - TO,-48.8911876,-7.8724155,[mapbox layers='acaoeducativa.mapadosplanos' api='' options='' lat='-7.8724155' lon='-48.89118759999999' z='11' width='300' height='300'],Munícipio,bernardo sayão-to,bernardo-sayão-to,municipio
170330,Bom Jesus do Tocantins - TO,-48.1540601,-8.9805271,[mapbox layers='acaoeducativa.mapadosplanos' api='' options='' lat='-8.9805271' lon='-48.1540601' z='11' width='300' height='300'],Munícipio,bom jesus do tocantins-to,bom-jesus-do-tocantins-to,municipio
170360,Brasilândia do Tocantins - TO,-48.4878926,-8.3891256,[mapbox layers='acaoeducativa.mapadosplanos' api='' options='' lat='-8.3891256' lon='-48.4878926' z='11' width='300' height='300'],Munícipio,brasilândia do tocantins-to,brasilândia-do-tocantins-to,municipio
170370,Brejinho de Nazaré - TO,-48.5638524,-11.0001118,[mapbox layers='acaoeducativa.mapadosplanos' api='' options='' lat='-11.0001118' lon='-48.56385239999999' z='11' width='300' height='300'],Munícipio,brejinho de nazaré-to,brejinho-de-nazaré-to,municipio
170380,Buriti do Tocantins - TO,-48.2290512,-5.3179851,[mapbox layers='acaoeducativa.mapadosplanos' api='' options='' lat='-5.3179851' lon='-48.2290512' z='11' width='300' height='300'],Munícipio,buriti do tocantins-to,buriti-do-tocantins-to,municipio
170382,Cachoeirinha - TO,-47.9183118,-6.1190829,[mapbox layers='acaoeducativa.mapadosplanos' api='' options='' lat='-6.1190829' lon='-47.9183118' z='11' width='300' height='300'],Munícipio,cachoeirinha-to,cachoeirinha-to,municipio
170384,Campos Lindos - TO,-46.881111,-7.999722,[mapbox layers='acaoeducativa.mapadosplanos' api='' options='' lat='-7.999722' lon='-46.881111' z='11' width='300' height='300'],Munícipio,campos lindos-to,campos-lindos-to,municipio
170386,Cariri do Tocantins - TO,-49.1637266,-11.8902892,[mapbox layers='acaoeducativa.mapadosplanos' api='' options='' lat='-11.8902892' lon='-49.1637266' z='11' width='300' height='300'],Munícipio,cariri do tocantins-to,cariri-do-tocantins-to,municipio
170388,Carmolândia - TO,-48.3961586,-7.0333125,[mapbox layers='acaoeducativa.mapadosplanos' api='' options='' lat='-7.0333125' lon='-48.39615860000001' z='11' width='300' height='300'],Munícipio,carmolândia-to,carmolândia-to,municipio
170389,Carrasco Bonito - TO,-48.0526251,-5.3690936,[mapbox layers='acaoeducativa.mapadosplanos' api='' options='' lat='-5.369093599999999' lon='-48.0526251' z='11' width='300' height='300'],Munícipio,carrasco bonito-to,carrasco-bonito-to,municipio
170390,Caseara - TO,-49.9464978,-9.2708065,[mapbox layers='acaoeducativa.mapadosplanos' api='' options='' lat='-9.270806499999999' lon='-49.9464978' z='11' width='300' height='300'],Munícipio,caseara-to,caseara-to,municipio
170410,Centenário - TO,-47.338889,-8.965833,[mapbox layers='acaoeducativa.mapadosplanos' api='' options='' lat='-8.965833' lon='-47.33888899999999' z='11' width='300' height='300'],Munícipio,centenário-to,centenário-to,municipio
170460,Chapada de Areia - TO,-49.1447889,-10.1397798,[mapbox layers='acaoeducativa.mapadosplanos' api='' options='' lat='-10.1397798' lon='-49.14478889999999' z='11' width='300' height='300'],Munícipio,chapada de areia-to,chapada-de-areia-to,municipio
170510,Chapada da Natividade - TO,-47.751865,-11.6176751,[mapbox layers='acaoeducativa.mapadosplanos' api='' options='' lat='-11.6176751' lon='-47.751865' z='11' width='300' height='300'],Munícipio,chapada da natividade-to,chapada-da-natividade-to,municipio
170550,Colinas do Tocantins - TO,-48.4771561,-8.0584439,[mapbox layers='acaoeducativa.mapadosplanos' api='' options='' lat='-8.0584439' lon='-48.4771561' z='11' width='300' height='300'],Munícipio,colinas do tocantins-to,colinas-do-tocantins-to,municipio
170555,Combinado - TO,-46.5379048,-12.7925257,[mapbox layers='acaoeducativa.mapadosplanos' api='' options='' lat='-12.7925257' lon='-46.5379048' z='11' width='300' height='300'],Munícipio,combinado-to,combinado-to,municipio
170560,Conceição do Tocantins - TO,-47.298137,-12.2175787,[mapbox layers='acaoeducativa.mapadosplanos' api='' options='' lat='-12.2175787' lon='-47.298137' z='11' width='300' height='300'],Munícipio,conceição do tocantins-to,conceição-do-tocantins-to,municipio
170600,Couto Magalhães - TO,-49.1692218,-8.3435117,[mapbox layers='acaoeducativa.mapadosplanos' api='' options='' lat='-8.343511699999999' lon='-49.1692218' z='11' width='300' height='300'],Munícipio,couto magalhães-to,couto-magalhães-to,municipio
170610,Cristalândia - TO,-49.1945578,-10.596763,[mapbox layers='acaoeducativa.mapadosplanos' api='' options='' lat='-10.596763' lon='-49.1945578' z='11' width='300' height='300'],Munícipio,cristalândia-to,cristalândia-to,municipio
170625,Crixás do Tocantins - TO,-48.9164648,-11.1007868,[mapbox layers='acaoeducativa.mapadosplanos' api='' options='' lat='-11.1007868' lon='-48.9164648' z='11' width='300' height='300'],Munícipio,crixás do tocantins-to,crixás-do-tocantins-to,municipio
170650,Darcinópolis - TO,-47.7528702,-6.7185503,[mapbox layers='acaoeducativa.mapadosplanos' api='' options='' lat='-6.7185503' lon='-47.7528702' z='11' width='300' height='300'],Munícipio,darcinópolis-to,darcinópolis-to,municipio
170700,Dianópolis - TO,-46.75,-11.7,[mapbox layers='acaoeducativa.mapadosplanos' api='' options='' lat='-11.7' lon='-46.75' z='11' width='300' height='300'],Munícipio,dianópolis-to,dianópolis-to,municipio
170710,Divinópolis do Tocantins - TO,-49.1166667,-9.75,[mapbox layers='acaoeducativa.mapadosplanos' api='' options='' lat='-9.75' lon='-49.1166667' z='11' width='300' height='300'],Munícipio,divinópolis do tocantins-to,divinópolis-do-tocantins-to,municipio
170720,Dois Irmãos do Tocantins - TO,-49.0634842,-9.2475494,[mapbox layers='acaoeducativa.mapadosplanos' api='' options='' lat='-9.247549399999999' lon='-49.0634842' z='11' width='300' height='300'],Munícipio,dois irmãos do tocantins-to,dois-irmãos-do-tocantins-to,municipio
170730,Dueré - TO,-49.2682614,-11.3462265,[mapbox layers='acaoeducativa.mapadosplanos' api='' options='' lat='-11.3462265' lon='-49.2682614' z='11' width='300' height='300'],Munícipio,dueré-to,dueré-to,municipio
170740,Esperantina - TO,-48.510195,-5.3450971,[mapbox layers='acaoeducativa.mapadosplanos' api='' options='' lat='-5.345097099999999' lon='-48.510195' z='11' width='300' height='300'],Munícipio,esperantina-to,esperantina-to,municipio
170755,Fátima - TO,-48.9008402,-10.7617022,[mapbox layers='acaoeducativa.mapadosplanos' api='' options='' lat='-10.7617022' lon='-48.9008402' z='11' width='300' height='300'],Munícipio,fátima-to,fátima-to,municipio
170765,Figueirópolis - TO,-49.1647199,-12.1264494,[mapbox layers='acaoeducativa.mapadosplanos' api='' options='' lat='-12.1264494' lon='-49.16471989999999' z='11' width='300' height='300'],Munícipio,figueirópolis-to,figueirópolis-to,municipio
170770,Filadélfia - TO,-47.4910701,-7.339377,[mapbox layers='acaoeducativa.mapadosplanos' api='' options='' lat='-7.339377' lon='-47.49107009999999' z='11' width='300' height='300'],Munícipio,filadélfia-to,filadélfia-to,municipio
170820,Formoso do Araguaia - TO,-49.5269007,-11.8006873,[mapbox layers='acaoeducativa.mapadosplanos' api='' options='' lat='-11.8006873' lon='-49.52690070000001' z='11' width='300' height='300'],Munícipio,formoso do araguaia-to,formoso-do-araguaia-to,municipio
170825,Fortaleza do Tabocão - TO,-48.5193445,-9.0574201,[mapbox layers='acaoeducativa.mapadosplanos' api='' options='' lat='-9.0574201' lon='-48.5193445' z='11' width='300' height='300'],Munícipio,fortaleza do tabocão-to,fortaleza-do-tabocão-to,municipio
170830,Goianorte - TO,-48.9355908,-8.7729051,[mapbox layers='acaoeducativa.mapadosplanos' api='' options='' lat='-8.7729051' lon='-48.9355908' z='11' width='300' height='300'],Munícipio,goianorte-to,goianorte-to,municipio
170900,Goiatins - TO,-47.3166413,-7.7110312,[mapbox layers='acaoeducativa.mapadosplanos' api='' options='' lat='-7.7110312' lon='-47.3166413' z='11' width='300' height='300'],Munícipio,goiatins-to,goiatins-to,municipio
170930,Guaraí - TO,-48.5121712,-8.8334089,[mapbox layers='acaoeducativa.mapadosplanos' api='' options='' lat='-8.8334089' lon='-48.5121712' z='11' width='300' height='300'],Munícipio,guaraí-to,guaraí-to,municipio
170950,Gurupi - TO,-49.0759617,-11.7248806,[mapbox layers='acaoeducativa.mapadosplanos' api='' options='' lat='-11.7248806' lon='-49.0759617' z='11' width='300' height='300'],Munícipio,gurupi-to,gurupi-to,municipio
170980,Ipueiras - TO,-48.458301,-11.2335171,[mapbox layers='acaoeducativa.mapadosplanos' api='' options='' lat='-11.2335171' lon='-48.458301' z='11' width='300' height='300'],Munícipio,ipueiras-to,ipueiras-to,municipio
171050,Itacajá - TO,-47.7707429,-8.3929924,[mapbox layers='acaoeducativa.mapadosplanos' api='' options='' lat='-8.392992399999999' lon='-47.77074289999999' z='11' width='300' height='300'],Munícipio,itacajá-to,itacajá-to,municipio
171070,Itaguatins - TO,-47.4878387,-5.7764893,[mapbox layers='acaoeducativa.mapadosplanos' api='' options='' lat='-5.7764893' lon='-47.4878387' z='11' width='300' height='300'],Munícipio,itaguatins-to,itaguatins-to,municipio
171090,Itapiratins - TO,-48.1116671,-8.383938,[mapbox layers='acaoeducativa.mapadosplanos' api='' options='' lat='-8.383937999999999' lon='-48.1116671' z='11' width='300' height='300'],Munícipio,itapiratins-to,itapiratins-to,municipio
171110,Itaporã do Tocantins - TO,-48.6916411,-8.5674013,[mapbox layers='acaoeducativa.mapadosplanos' api='' options='' lat='-8.5674013' lon='-48.6916411' z='11' width='300' height='300'],Munícipio,itaporã do tocantins-to,itaporã-do-tocantins-to,municipio
171150,Jaú do Tocantins - TO,-48.5870031,-12.6533288,[mapbox layers='acaoeducativa.mapadosplanos' api='' options='' lat='-12.6533288' lon='-48.5870031' z='11' width='300' height='300'],Munícipio,jaú do tocantins-to,jaú-do-tocantins-to,municipio
171180,Juarina - TO,-49.0654309,-8.1193806,[mapbox layers='acaoeducativa.mapadosplanos' api='' options='' lat='-8.1193806' lon='-49.0654309' z='11' width='300' height='300'],Munícipio,juarina-to,juarina-to,municipio
171190,Lagoa da Confusão - TO,-49.6304948,-10.7894543,[mapbox layers='acaoeducativa.mapadosplanos' api='' options='' lat='-10.7894543' lon='-49.6304948' z='11' width='300' height='300'],Munícipio,lagoa da confusão-to,lagoa-da-confusão-to,municipio
171195,Lagoa do Tocantins - TO,-47.5879281,-10.370421,[mapbox layers='acaoeducativa.mapadosplanos' api='' options='' lat='-10.370421' lon='-47.5879281' z='11' width='300' height='300'],Munícipio,lagoa do tocantins-to,lagoa-do-tocantins-to,municipio
171200,Lajeado - TO,-48.3575323,-9.7514118,[mapbox layers='acaoeducativa.mapadosplanos' api='' options='' lat='-9.7514118' lon='-48.3575323' z='11' width='300' height='300'],Munícipio,lajeado-to,lajeado-to,municipio
171215,Lavandeira - TO,-46.5086856,-12.7854258,[mapbox layers='acaoeducativa.mapadosplanos' api='' options='' lat='-12.7854258' lon='-46.5086856' z='11' width='300' height='300'],Munícipio,lavandeira-to,lavandeira-to,municipio
171240,Lizarda - TO,-46.6751341,-9.5900091,[mapbox layers='acaoeducativa.mapadosplanos' api='' options='' lat='-9.5900091' lon='-46.6751341' z='11' width='300' height='300'],Munícipio,lizarda-to,lizarda-to,municipio
171245,Luzinópolis - TO,-47.8596164,-6.1824383,[mapbox layers='acaoeducativa.mapadosplanos' api='' options='' lat='-6.182438299999999' lon='-47.8596164' z='11' width='300' height='300'],Munícipio,luzinópolis-to,luzinópolis-to,municipio
171250,Marianópolis do Tocantins - TO,-49.6519616,-9.7859264,[mapbox layers='acaoeducativa.mapadosplanos' api='' options='' lat='-9.7859264' lon='-49.6519616' z='11' width='300' height='300'],Munícipio,marianópolis do tocantins-to,marianópolis-do-tocantins-to,municipio
171270,Mateiros - TO,-48.2,-5.2569444,[mapbox layers='acaoeducativa.mapadosplanos' api='' options='' lat='-5.2569444' lon='-48.2' z='11' width='300' height='300'],Munícipio,mateiros-to,mateiros-to,municipio
171280,Maurilândia do Tocantins - TO,-47.50403,-5.9527603,[mapbox layers='acaoeducativa.mapadosplanos' api='' options='' lat='-5.9527603' lon='-47.50403' z='11' width='300' height='300'],Munícipio,maurilândia do tocantins-to,maurilândia-do-tocantins-to,municipio
171320,Miracema do Tocantins - TO,-48.3949853,-9.5606538,[mapbox layers='acaoeducativa.mapadosplanos' api='' options='' lat='-9.560653799999999' lon='-48.39498529999999' z='11' width='300' height='300'],Munícipio,miracema do tocantins-to,miracema-do-tocantins-to,municipio
171330,Miranorte - TO,-48.5934756,-9.5313394,[mapbox layers='acaoeducativa.mapadosplanos' api='' options='' lat='-9.5313394' lon='-48.5934756' z='11' width='300' height='300'],Munícipio,miranorte-to,miranorte-to,municipio
171360,Monte do Carmo - TO,-48.1095801,-10.7703283,[mapbox layers='acaoeducativa.mapadosplanos' api='' options='' lat='-10.7703283' lon='-48.1095801' z='11' width='300' height='300'],Munícipio,monte do carmo-to,monte-do-carmo-to,municipio
171370,Monte Santo do Tocantins - TO,-48.9921877,-10.0015753,[mapbox layers='acaoeducativa.mapadosplanos' api='' options='' lat='-10.0015753' lon='-48.9921877' z='11' width='300' height='300'],Munícipio,monte santo do tocantins-to,monte-santo-do-tocantins-to,municipio
171380,Palmeiras do Tocantins - TO,-47.5461528,-6.6136569,[mapbox layers='acaoeducativa.mapadosplanos' api='' options='' lat='-6.6136569' lon='-47.54615279999999' z='11' width='300' height='300'],Munícipio,palmeiras do tocantins-to,palmeiras-do-tocantins-to,municipio
171395,Muricilândia - TO,-48.45,-7.1166667,[mapbox layers='acaoeducativa.mapadosplanos' api='' options='' lat='-7.1166667' lon='-48.45' z='11' width='300' height='300'],Munícipio,muricilândia-to,muricilândia-to,municipio
171420,Natividade - TO,-47.730752,-11.7098075,[mapbox layers='acaoeducativa.mapadosplanos' api='' options='' lat='-11.7098075' lon='-47.730752' z='11' width='300' height='300'],Munícipio,natividade-to,natividade-to,municipio
171430,Nazaré - TO,-47.6644113,-6.3726305,[mapbox layers='acaoeducativa.mapadosplanos' api='' options='' lat='-6.3726305' lon='-47.6644113' z='11' width='300' height='300'],Munícipio,nazaré-to,nazaré-to,municipio
171488,Nova Olinda - TO,-48.4237764,-7.6352617,[mapbox layers='acaoeducativa.mapadosplanos' api='' options='' lat='-7.6352617' lon='-48.4237764' z='11' width='300' height='300'],Munícipio,nova olinda-to,nova-olinda-to,municipio
171500,Nova Rosalândia - TO,-48.908725,-10.5674832,[mapbox layers='acaoeducativa.mapadosplanos' api='' options='' lat='-10.5674832' lon='-48.908725' z='11' width='300' height='300'],Munícipio,nova rosalândia-to,nova-rosalândia-to,municipio
171510,Novo Acordo - TO,-47.6695932,-9.9703238,[mapbox layers='acaoeducativa.mapadosplanos' api='' options='' lat='-9.9703238' lon='-47.6695932' z='11' width='300' height='300'],Munícipio,novo acordo-to,novo-acordo-to,municipio
171515,Novo Alegre - TO,-46.5612862,-12.9278744,[mapbox layers='acaoeducativa.mapadosplanos' api='' options='' lat='-12.9278744' lon='-46.5612862' z='11' width='300' height='300'],Munícipio,novo alegre-to,novo-alegre-to,municipio
171525,Novo Jardim - TO,-46.6245978,-11.8179867,[mapbox layers='acaoeducativa.mapadosplanos' api='' options='' lat='-11.8179867' lon='-46.6245978' z='11' width='300' height='300'],Munícipio,novo jardim-to,novo-jardim-to,municipio
171550,Oliveira de Fátima - TO,-48.9024711,-10.7080459,[mapbox layers='acaoeducativa.mapadosplanos' api='' options='' lat='-10.7080459' lon='-48.9024711' z='11' width='300' height='300'],Munícipio,oliveira de fátima-to,oliveira-de-fátima-to,municipio
171570,Palmeirante - TO,-47.8,-7.8,[mapbox layers='acaoeducativa.mapadosplanos' api='' options='' lat='-7.8' lon='-47.8' z='11' width='300' height='300'],Munícipio,palmeirante-to,palmeirante-to,municipio
171575,Palmeirópolis - TO,-48.4026206,-13.0445539,[mapbox layers='acaoeducativa.mapadosplanos' api='' options='' lat='-13.0445539' lon='-48.4026206' z='11' width='300' height='300'],Munícipio,palmeirópolis-to,palmeirópolis-to,municipio
171610,Paraíso do Tocantins - TO,-48.8809732,-10.1721973,[mapbox layers='acaoeducativa.mapadosplanos' api='' options='' lat='-10.1721973' lon='-48.8809732' z='11' width='300' height='300'],Munícipio,paraíso do tocantins-to,paraíso-do-tocantins-to,municipio
171620,Paranã - TO,-47.8836495,-12.6161807,[mapbox layers='acaoeducativa.mapadosplanos' api='' options='' lat='-12.6161807' lon='-47.8836495' z='11' width='300' height='300'],Munícipio,paranã-to,paranã-to,municipio
171630,Pau D'Arco - TO,-49.3581722,-7.5393773,[mapbox layers='acaoeducativa.mapadosplanos' api='' options='' lat='-7.5393773' lon='-49.35817220000001' z='11' width='300' height='300'],Munícipio,pau darco-to,pau-darco-to,municipio
171650,Pedro Afonso - TO,-48.1764342,-8.9783881,[mapbox layers='acaoeducativa.mapadosplanos' api='' options='' lat='-8.9783881' lon='-48.1764342' z='11' width='300' height='300'],Munícipio,pedro afonso-to,pedro-afonso-to,municipio
171660,Peixe - TO,-48.5385588,-12.0368439,[mapbox layers='acaoeducativa.mapadosplanos' api='' options='' lat='-12.0368439' lon='-48.5385588' z='11' width='300' height='300'],Munícipio,peixe-to,peixe-to,municipio
171665,Pequizeiro - TO,-48.9262806,-8.5899382,[mapbox layers='acaoeducativa.mapadosplanos' api='' options='' lat='-8.589938199999999' lon='-48.9262806' z='11' width='300' height='300'],Munícipio,pequizeiro-to,pequizeiro-to,municipio
171670,Colméia - TO,-48.7618147,-8.7238331,[mapbox layers='acaoeducativa.mapadosplanos' api='' options='' lat='-8.7238331' lon='-48.7618147' z='11' width='300' height='300'],Munícipio,colméia-to,colméia-to,municipio
171700,Pindorama do Tocantins - TO,-47.5821652,-11.1327179,[mapbox layers='acaoeducativa.mapadosplanos' api='' options='' lat='-11.1327179' lon='-47.5821652' z='11' width='300' height='300'],Munícipio,pindorama do tocantins-to,pindorama-do-tocantins-to,municipio
171720,Piraquê - TO,-48.2952227,-6.7753372,[mapbox layers='acaoeducativa.mapadosplanos' api='' options='' lat='-6.7753372' lon='-48.2952227' z='11' width='300' height='300'],Munícipio,piraquê-to,piraquê-to,municipio
171750,Pium - TO,-49.1825215,-10.4431822,[mapbox layers='acaoeducativa.mapadosplanos' api='' options='' lat='-10.4431822' lon='-49.1825215' z='11' width='300' height='300'],Munícipio,pium-to,pium-to,municipio
171780,Ponte Alta do Bom Jesus - TO,-46.4754533,-12.0895283,[mapbox layers='acaoeducativa.mapadosplanos' api='' options='' lat='-12.0895283' lon='-46.4754533' z='11' width='300' height='300'],Munícipio,ponte alta do bom jesus-to,ponte-alta-do-bom-jesus-to,municipio
171790,Ponte Alta do Tocantins - TO,-47.5371283,-10.742645,[mapbox layers='acaoeducativa.mapadosplanos' api='' options='' lat='-10.742645' lon='-47.5371283' z='11' width='300' height='300'],Munícipio,ponte alta do tocantins-to,ponte-alta-do-tocantins-to,municipio
171800,Porto Alegre do Tocantins - TO,-47.0508714,-11.6113891,[mapbox layers='acaoeducativa.mapadosplanos' api='' options='' lat='-11.6113891' lon='-47.0508714' z='11' width='300' height='300'],Munícipio,porto alegre do tocantins-to,porto-alegre-do-tocantins-to,municipio
171820,Porto Nacional - TO,-48.414268,-10.7075296,[mapbox layers='acaoeducativa.mapadosplanos' api='' options='' lat='-10.7075296' lon='-48.41426800000001' z='11' width='300' height='300'],Munícipio,porto nacional-to,porto-nacional-to,municipio
171830,Praia Norte - TO,-47.8113816,-5.3945419,[mapbox layers='acaoeducativa.mapadosplanos' api='' options='' lat='-5.3945419' lon='-47.8113816' z='11' width='300' height='300'],Munícipio,praia norte-to,praia-norte-to,municipio
171840,Presidente Kennedy - TO,-48.5053578,-8.5294634,[mapbox layers='acaoeducativa.mapadosplanos' api='' options='' lat='-8.5294634' lon='-48.5053578' z='11' width='300' height='300'],Munícipio,presidente kennedy-to,presidente-kennedy-to,municipio
171845,Pugmil - TO,-48.8961727,-10.4242395,[mapbox layers='acaoeducativa.mapadosplanos' api='' options='' lat='-10.4242395' lon='-48.8961727' z='11' width='300' height='300'],Munícipio,pugmil-to,pugmil-to,municipio
171850,Recursolândia - TO,-47.0833333,-8.7,[mapbox layers='acaoeducativa.mapadosplanos' api='' options='' lat='-8.7' lon='-47.0833333' z='11' width='300' height='300'],Munícipio,recursolândia-to,recursolândia-to,municipio
171855,Riachinho - TO,-48.1361444,-6.4406425,[mapbox layers='acaoeducativa.mapadosplanos' api='' options='' lat='-6.4406425' lon='-48.1361444' z='11' width='300' height='300'],Munícipio,riachinho-to,riachinho-to,municipio
171865,Rio da Conceição - TO,-46.8744679,-11.3914502,[mapbox layers='acaoeducativa.mapadosplanos' api='' options='' lat='-11.3914502' lon='-46.8744679' z='11' width='300' height='300'],Munícipio,rio da conceição-to,rio-da-conceição-to,municipio
171870,Rio dos Bois - TO,-48.542352,-9.3156584,[mapbox layers='acaoeducativa.mapadosplanos' api='' options='' lat='-9.3156584' lon='-48.542352' z='11' width='300' height='300'],Munícipio,rio dos bois-to,rio-dos-bois-to,municipio
171875,Rio Sono - TO,-47.8800347,-9.3483803,[mapbox layers='acaoeducativa.mapadosplanos' api='' options='' lat='-9.348380299999999' lon='-47.8800347' z='11' width='300' height='300'],Munícipio,rio sono-to,rio-sono-to,municipio
171880,Sampaio - TO,-47.8747609,-5.3534166,[mapbox layers='acaoeducativa.mapadosplanos' api='' options='' lat='-5.3534166' lon='-47.8747609' z='11' width='300' height='300'],Munícipio,sampaio-to,sampaio-to,municipio
171884,Sandolândia - TO,-49.9352765,-12.527033,[mapbox layers='acaoeducativa.mapadosplanos' api='' options='' lat='-12.527033' lon='-49.9352765' z='11' width='300' height='300'],Munícipio,sandolândia-to,sandolândia-to,municipio
171886,Santa Fé do Araguaia - TO,-48.7034287,-7.1487618,[mapbox layers='acaoeducativa.mapadosplanos' api='' options='' lat='-7.1487618' lon='-48.7034287' z='11' width='300' height='300'],Munícipio,santa fé do araguaia-to,santa-fé-do-araguaia-to,municipio
171888,Santa Maria do Tocantins - TO,-47.5666667,-8.75,[mapbox layers='acaoeducativa.mapadosplanos' api='' options='' lat='-8.75' lon='-47.5666667' z='11' width='300' height='300'],Munícipio,santa maria do tocantins-to,santa-maria-do-tocantins-to,municipio
171889,Santa Rita do Tocantins - TO,-48.9074824,-10.8621927,[mapbox layers='acaoeducativa.mapadosplanos' api='' options='' lat='-10.8621927' lon='-48.9074824' z='11' width='300' height='300'],Munícipio,santa rita do tocantins-to,santa-rita-do-tocantins-to,municipio
171890,Santa Rosa do Tocantins - TO,-48.1172071,-11.4418866,[mapbox layers='acaoeducativa.mapadosplanos' api='' options='' lat='-11.4418866' lon='-48.11720709999999' z='11' width='300' height='300'],Munícipio,santa rosa do tocantins-to,santa-rosa-do-tocantins-to,municipio
